$PGNS,0,V,GNS3000,B,1,3,7,S01,BL10001R,01DC154A*0B
$GNGGA,074540.166,4334.5409,N,00357.4139,E,1,5,1.81,-25.6,M,49.7,M,,*5C
$GNRMC,074540.166,A,4334.5409,N,00357.4139,E,0.35,0.00,210226,,,A*76
$GNGGA,074540.500,4334.5410,N,00357.4139,E,1,5,1.80,-25.1,M,49.7,M,,*56
$GNRMC,074540.500,A,4334.5410,N,00357.4139,E,0.26,0.00,210226,,,A*78
$GNGGA,074540.750,4334.5410,N,00357.4140,E,1,5,1.80,-24.3,M,49.7,M,,*5C
$GNRMC,074540.750,A,4334.5410,N,00357.4140,E,0.12,0.00,210226,,,A*76
$GNGGA,074541.000,4334.5411,N,00357.4140,E,1,5,1.80,-23.9,M,49.7,M,,*53
$GNRMC,074541.000,A,4334.5411,N,00357.4140,E,0.16,0.00,210226,,,A*70
$GNGGA,074541.250,4334.5411,N,00357.4141,E,1,5,1.80,-23.6,M,49.7,M,,*5A
$GNRMC,074541.250,A,4334.5411,N,00357.4141,E,0.15,0.00,210226,,,A*75
$GNGGA,074541.500,4334.5411,N,00357.4141,E,1,5,1.80,-23.3,M,49.7,M,,*5D
$GNRMC,074541.500,A,4334.5411,N,00357.4141,E,0.17,0.00,210226,,,A*75
$GNGGA,074541.750,4334.5411,N,00357.4141,E,1,5,1.80,-23.2,M,49.7,M,,*5B
$GNRMC,074541.750,A,4334.5411,N,00357.4141,E,0.14,0.00,210226,,,A*71
$GNGGA,074542.000,4334.5411,N,00357.4142,E,1,5,1.80,-23.1,M,49.7,M,,*5A
$GNRMC,074542.000,A,4334.5411,N,00357.4142,E,0.13,0.00,210226,,,A*74
$GNGGA,074542.250,4334.5411,N,00357.4142,E,1,5,1.80,-23.0,M,49.7,M,,*5C
$GNRMC,074542.250,A,4334.5411,N,00357.4142,E,0.13,0.00,210226,,,A*73
$GNGGA,074542.500,4334.5411,N,00357.4143,E,1,5,1.80,-22.7,M,49.7,M,,*59
$GNRMC,074542.500,A,4334.5411,N,00357.4143,E,0.12,0.00,210226,,,A*71
$GNGGA,074542.750,4334.5410,N,00357.4143,E,1,5,1.80,-22.5,M,49.7,M,,*5D
$GNRMC,074542.750,A,4334.5410,N,00357.4143,E,0.11,0.00,210226,,,A*74
$GNGGA,074543.000,4334.5411,N,00357.4143,E,1,5,1.80,-22.4,M,49.7,M,,*5E
$GNRMC,074543.000,A,4334.5411,N,00357.4143,E,0.09,0.00,210226,,,A*7F
$GNGGA,074543.250,4334.5410,N,00357.4143,E,1,5,1.80,-22.4,M,49.7,M,,*58
$GNRMC,074543.250,A,4334.5410,N,00357.4143,E,0.09,0.00,210226,,,A*79
$GNGGA,074543.500,4334.5411,N,00357.4144,E,1,5,1.80,-22.3,M,49.7,M,,*5B
$GNRMC,074543.500,A,4334.5411,N,00357.4144,E,0.10,0.00,210226,,,A*75
$GNGGA,074543.750,4334.5411,N,00357.4144,E,1,5,1.80,-22.1,M,49.7,M,,*5E
$GNRMC,074543.750,A,4334.5411,N,00357.4144,E,0.08,0.00,210226,,,A*7B
$GNGGA,074544.000,4334.5411,N,00357.4144,E,1,5,1.80,-22.0,M,49.7,M,,*5A
$GNRMC,074544.000,A,4334.5411,N,00357.4144,E,0.05,0.00,210226,,,A*73
$GNGGA,074544.250,4334.5412,N,00357.4144,E,1,5,1.80,-21.9,M,49.7,M,,*54
$GNRMC,074544.250,A,4334.5412,N,00357.4144,E,0.04,0.00,210226,,,A*76
$GNGGA,074544.500,4334.5412,N,00357.4144,E,1,5,1.80,-21.9,M,49.7,M,,*56
$GNRMC,074544.500,A,4334.5412,N,00357.4144,E,0.05,0.00,210226,,,A*75
$GNGGA,074544.750,4334.5412,N,00357.4143,E,1,5,1.80,-21.7,M,49.7,M,,*58
$GNRMC,074544.750,A,4334.5412,N,00357.4143,E,0.06,0.00,210226,,,A*76
$GNGGA,074545.000,4334.5413,N,00357.4143,E,1,5,1.80,-21.5,M,49.7,M,,*58
$GNRMC,074545.000,A,4334.5413,N,00357.4143,E,0.08,0.00,210226,,,A*7A
$GNGGA,074545.250,4334.5413,N,00357.4143,E,1,5,1.80,-21.1,M,49.7,M,,*5B
$GNRMC,074545.250,A,4334.5413,N,00357.4143,E,0.06,0.00,210226,,,A*73
$GNGGA,074545.500,4334.5414,N,00357.4143,E,1,5,1.80,-20.6,M,49.7,M,,*58
$GNRMC,074545.500,A,4334.5414,N,00357.4143,E,0.07,0.00,210226,,,A*77
$GNGGA,074545.750,4334.5415,N,00357.4143,E,1,5,1.80,-20.2,M,49.7,M,,*5A
$GNRMC,074545.750,A,4334.5415,N,00357.4143,E,0.07,0.00,210226,,,A*71
$GNGGA,074546.000,4334.5416,N,00357.4144,E,1,5,1.80,-19.3,M,49.7,M,,*54
$GNRMC,074546.000,A,4334.5416,N,00357.4144,E,0.06,0.00,210226,,,A*75
$GNGGA,074546.250,4334.5417,N,00357.4144,E,1,5,1.80,-18.7,M,49.7,M,,*57
$GNRMC,074546.250,A,4334.5417,N,00357.4144,E,0.06,0.00,210226,,,A*73
$GNGGA,074546.500,4334.5418,N,00357.4145,E,1,5,1.80,-18.0,M,49.7,M,,*5C
$GNRMC,074546.500,A,4334.5418,N,00357.4145,E,0.04,0.00,210226,,,A*7D
$GNGGA,074546.750,4334.5418,N,00357.4146,E,1,5,1.80,-17.5,M,49.7,M,,*52
$GNRMC,074546.750,A,4334.5418,N,00357.4146,E,0.03,0.00,210226,,,A*7E
$GNGGA,074547.000,4334.5418,N,00357.4147,E,1,5,1.80,-17.1,M,49.7,M,,*54
$GNRMC,074547.000,A,4334.5418,N,00357.4147,E,0.02,0.00,210226,,,A*7D
$GNGGA,074547.250,4334.5418,N,00357.4147,E,1,5,1.80,-16.9,M,49.7,M,,*5A
$GNRMC,074547.250,A,4334.5418,N,00357.4147,E,0.02,0.00,210226,,,A*7A
$GNGGA,074547.500,4334.5418,N,00357.4147,E,1,5,1.80,-16.7,M,49.7,M,,*56
$GNRMC,074547.500,A,4334.5418,N,00357.4147,E,0.02,0.00,210226,,,A*78
$GNGGA,074547.750,4334.5418,N,00357.4147,E,1,5,1.80,-16.5,M,49.7,M,,*53
$GNRMC,074547.750,A,4334.5418,N,00357.4147,E,0.03,0.00,210226,,,A*7E
$GNGGA,074548.000,4334.5418,N,00357.4147,E,1,5,1.80,-16.4,M,49.7,M,,*5F
$GNRMC,074548.000,A,4334.5418,N,00357.4147,E,0.04,0.00,210226,,,A*74
$GNGGA,074548.250,4334.5417,N,00357.4149,E,1,6,1.73,-15.0,M,49.7,M,,*51
$GNRMC,074548.250,A,4334.5417,N,00357.4149,E,0.04,0.00,210226,,,A*72
$GNGGA,074548.500,4334.5416,N,00357.4150,E,1,6,1.73,-13.6,M,49.7,M,,*5A
$GNRMC,074548.500,A,4334.5416,N,00357.4150,E,0.08,0.00,210226,,,A*75
$GNGGA,074548.750,4334.5416,N,00357.4151,E,1,6,1.73,-12.5,M,49.7,M,,*5E
$GNRMC,074548.750,A,4334.5416,N,00357.4151,E,0.10,0.00,210226,,,A*7A
$GNGGA,074549.000,4334.5416,N,00357.4152,E,1,6,1.73,-11.6,M,49.7,M,,*5E
$GNRMC,074549.000,A,4334.5416,N,00357.4152,E,0.09,0.00,210226,,,A*72
$GNGGA,074549.250,4334.5416,N,00357.4152,E,1,6,1.73,-10.9,M,49.7,M,,*57
$GNRMC,074549.250,A,4334.5416,N,00357.4152,E,0.14,0.00,210226,,,A*79
$GNGGA,074549.500,4334.5416,N,00357.4151,E,1,6,1.73,-10.3,M,49.7,M,,*5C
$GNRMC,074549.500,A,4334.5416,N,00357.4151,E,0.16,0.00,210226,,,A*7A
$GNGGA,074549.750,4334.5416,N,00357.4151,E,1,6,1.73,-9.9,M,49.7,M,,*69
$GNRMC,074549.750,A,4334.5416,N,00357.4151,E,0.16,0.00,210226,,,A*7D
$GNGGA,074550.000,4334.5416,N,00357.4151,E,1,6,1.73,-9.7,M,49.7,M,,*6D
$GNRMC,074550.000,A,4334.5416,N,00357.4151,E,0.18,0.00,210226,,,A*79
$GNGGA,074550.250,4334.5416,N,00357.4151,E,1,6,1.73,-9.5,M,49.7,M,,*68
$GNRMC,074550.250,A,4334.5416,N,00357.4151,E,0.18,0.00,210226,,,A*7E
$GNGGA,074550.500,4334.5416,N,00357.4151,E,1,6,1.73,-9.2,M,49.7,M,,*6D
$GNRMC,074550.500,A,4334.5416,N,00357.4151,E,0.13,0.00,210226,,,A*77
$GNGGA,074550.750,4334.5415,N,00357.4151,E,1,6,1.73,-8.7,M,49.7,M,,*6D
$GNRMC,074550.750,A,4334.5415,N,00357.4151,E,0.11,0.00,210226,,,A*71
$GNGGA,074551.000,4334.5416,N,00357.4151,E,1,6,1.73,-8.0,M,49.7,M,,*6A
$GNRMC,074551.000,A,4334.5416,N,00357.4151,E,0.08,0.00,210226,,,A*79
$GNGGA,074551.250,4334.5416,N,00357.4151,E,1,6,1.73,-7.4,M,49.7,M,,*66
$GNRMC,074551.250,A,4334.5416,N,00357.4151,E,0.05,0.00,210226,,,A*73
$GNGGA,074551.500,4334.5416,N,00357.4152,E,1,6,1.73,-6.8,M,49.7,M,,*6A
$GNRMC,074551.500,A,4334.5416,N,00357.4152,E,0.06,0.00,210226,,,A*71
$GNGGA,074551.750,4334.5415,N,00357.4152,E,1,6,1.73,-6.3,M,49.7,M,,*65
$GNRMC,074551.750,A,4334.5415,N,00357.4152,E,0.07,0.00,210226,,,A*74
$GNGGA,074552.000,4334.5415,N,00357.4152,E,1,6,1.73,-6.1,M,49.7,M,,*66
$GNRMC,074552.000,A,4334.5415,N,00357.4152,E,0.13,0.00,210226,,,A*70
$GNGGA,074552.250,4334.5414,N,00357.4151,E,1,6,1.73,-6.1,M,49.7,M,,*63
$GNRMC,074552.250,A,4334.5414,N,00357.4151,E,0.16,0.00,210226,,,A*70
$GNGGA,074552.500,4334.5414,N,00357.4151,E,1,6,1.73,-6.2,M,49.7,M,,*62
$GNRMC,074552.500,A,4334.5414,N,00357.4151,E,0.16,0.00,210226,,,A*72
$GNGGA,074552.750,4334.5413,N,00357.4151,E,1,6,1.73,-6.3,M,49.7,M,,*63
$GNRMC,074552.750,A,4334.5413,N,00357.4151,E,0.15,0.00,210226,,,A*71
$GNGGA,074553.000,4334.5413,N,00357.4152,E,1,6,1.73,-6.3,M,49.7,M,,*63
$GNRMC,074553.000,A,4334.5413,N,00357.4152,E,0.16,0.00,210226,,,A*72
$GNGGA,074553.250,4334.5412,N,00357.4152,E,1,6,1.73,-6.2,M,49.7,M,,*64
$GNRMC,074553.250,A,4334.5412,N,00357.4152,E,0.16,0.00,210226,,,A*74
$GNGGA,074553.500,4334.5412,N,00357.4152,E,1,6,1.73,-6.0,M,49.7,M,,*64
$GNRMC,074553.500,A,4334.5412,N,00357.4152,E,0.16,0.00,210226,,,A*76
$GNGGA,074553.750,4334.5411,N,00357.4152,E,1,6,1.73,-5.8,M,49.7,M,,*6B
$GNRMC,074553.750,A,4334.5411,N,00357.4152,E,0.18,0.00,210226,,,A*7C
$GNGGA,074554.000,4334.5410,N,00357.4152,E,1,6,1.73,-5.6,M,49.7,M,,*61
$GNRMC,074554.000,A,4334.5410,N,00357.4152,E,0.19,0.00,210226,,,A*79
$GNGGA,074554.250,4334.5409,N,00357.4153,E,1,6,1.73,-5.5,M,49.7,M,,*6C
$GNRMC,074554.250,A,4334.5409,N,00357.4153,E,0.19,0.00,210226,,,A*77
$GNGGA,074554.500,4334.5408,N,00357.4153,E,1,6,1.73,-5.4,M,49.7,M,,*6E
$GNRMC,074554.500,A,4334.5408,N,00357.4153,E,0.22,0.00,210226,,,A*7C
$GNGGA,074554.750,4334.5407,N,00357.4154,E,1,6,1.73,-5.3,M,49.7,M,,*66
$GNRMC,074554.750,A,4334.5407,N,00357.4154,E,0.22,0.00,210226,,,A*73
$GNGGA,074555.000,4334.5406,N,00357.4155,E,1,6,1.73,-5.2,M,49.7,M,,*64
$GNRMC,074555.000,A,4334.5406,N,00357.4155,E,0.25,0.00,210226,,,A*77
$GNGGA,074555.250,4334.5404,N,00357.4155,E,1,6,1.73,-5.0,M,49.7,M,,*63
$GNRMC,074555.250,A,4334.5404,N,00357.4155,E,0.27,0.00,210226,,,A*70
$GNGGA,074555.500,4334.5403,N,00357.4156,E,1,6,1.73,-4.8,M,49.7,M,,*6C
$GNRMC,074555.500,A,4334.5403,N,00357.4156,E,0.28,0.00,210226,,,A*79
$GNGGA,074555.750,4334.5402,N,00357.4157,E,1,6,1.73,-4.7,M,49.7,M,,*64
$GNRMC,074555.750,A,4334.5402,N,00357.4157,E,0.29,0.00,210226,,,A*7F
$GNGGA,074556.000,4334.5401,N,00357.4158,E,1,6,1.73,-4.5,M,49.7,M,,*6B
$GNRMC,074556.000,A,4334.5401,N,00357.4158,E,0.30,0.00,210226,,,A*7A
$GNGGA,074556.250,4334.5400,N,00357.4158,E,1,6,1.73,-4.4,M,49.7,M,,*6C
$GNRMC,074556.250,A,4334.5400,N,00357.4158,E,0.28,0.00,210226,,,A*75
$GNGGA,074556.500,4334.5400,N,00357.4159,E,1,6,1.73,-4.3,M,49.7,M,,*68
$GNRMC,074556.500,A,4334.5400,N,00357.4159,E,0.28,0.00,210226,,,A*76
$GNGGA,074556.750,4334.5399,N,00357.4159,E,1,6,1.73,-4.1,M,49.7,M,,*6A
$GNRMC,074556.750,A,4334.5399,N,00357.4159,E,0.28,0.00,210226,,,A*76
$GNGGA,074557.000,4334.5399,N,00357.4160,E,1,6,1.73,-4.1,M,49.7,M,,*63
$GNRMC,074557.000,A,4334.5399,N,00357.4160,E,0.28,0.00,210226,,,A*7F
$GNGGA,074557.250,4334.5398,N,00357.4161,E,1,6,1.73,-4.0,M,49.7,M,,*65
$GNRMC,074557.250,A,4334.5398,N,00357.4161,E,0.27,0.00,210226,,,A*77
$GNGGA,074557.500,4334.5397,N,00357.4163,E,1,6,1.73,-3.6,M,49.7,M,,*6B
$GNRMC,074557.500,A,4334.5397,N,00357.4163,E,0.26,0.00,210226,,,A*79
$GNGGA,074557.750,4334.5396,N,00357.4163,E,1,6,1.73,-3.3,M,49.7,M,,*68
$GNRMC,074557.750,A,4334.5396,N,00357.4163,E,0.25,0.00,210226,,,A*7C
$GNGGA,074558.000,4334.5395,N,00357.4164,E,1,6,1.73,-3.1,M,49.7,M,,*63
$GNRMC,074558.000,A,4334.5395,N,00357.4164,E,0.29,0.00,210226,,,A*79
$GNGGA,074558.250,4334.5393,N,00357.4165,E,1,6,1.73,-2.9,M,49.7,M,,*6A
$GNRMC,074558.250,A,4334.5393,N,00357.4165,E,0.32,0.00,210226,,,A*73
$GNGGA,074558.500,4334.5393,N,00357.4166,E,1,6,1.73,-2.6,M,49.7,M,,*64
$GNRMC,074558.500,A,4334.5393,N,00357.4166,E,0.32,0.00,210226,,,A*72
$GNGGA,074558.750,4334.5392,N,00357.4167,E,1,6,1.73,-2.1,M,49.7,M,,*64
$GNRMC,074558.750,A,4334.5392,N,00357.4167,E,0.31,0.00,210226,,,A*76
$GNGGA,074559.000,4334.5391,N,00357.4168,E,1,6,1.73,-1.8,M,49.7,M,,*61
$GNRMC,074559.000,A,4334.5391,N,00357.4168,E,0.31,0.00,210226,,,A*79
$GNGGA,074559.250,4334.5391,N,00357.4168,E,1,6,1.73,-1.6,M,49.7,M,,*68
$GNRMC,074559.250,A,4334.5391,N,00357.4168,E,0.32,0.00,210226,,,A*7D
$GNGGA,074559.500,4334.5390,N,00357.4169,E,1,6,1.73,-1.5,M,49.7,M,,*69
$GNRMC,074559.500,A,4334.5390,N,00357.4169,E,0.31,0.00,210226,,,A*7C
$GNGGA,074559.750,4334.5389,N,00357.4170,E,1,6,1.73,-1.3,M,49.7,M,,*68
$GNRMC,074559.750,A,4334.5389,N,00357.4170,E,0.31,0.00,210226,,,A*7B
$GNGGA,074600.000,4334.5388,N,00357.4171,E,1,6,1.73,-1.1,M,49.7,M,,*67
$GNRMC,074600.000,A,4334.5388,N,00357.4171,E,0.33,0.00,210226,,,A*74
$GNGGA,074600.250,4334.5387,N,00357.4172,E,1,6,1.73,-0.9,M,49.7,M,,*65
$GNRMC,074600.250,A,4334.5387,N,00357.4172,E,0.34,0.00,210226,,,A*78
$GNGGA,074600.500,4334.5387,N,00357.4173,E,1,6,1.73,-0.7,M,49.7,M,,*68
$GNRMC,074600.500,A,4334.5387,N,00357.4173,E,0.32,0.00,210226,,,A*7D
$GNGGA,074600.750,4334.5389,N,00357.4173,E,1,6,1.73,-0.5,M,49.7,M,,*63
$GNRMC,074600.750,A,4334.5389,N,00357.4173,E,0.11,0.00,210226,,,A*75
$GNGGA,074601.000,4334.5388,N,00357.4173,E,1,6,1.73,-0.4,M,49.7,M,,*60
$GNRMC,074601.000,A,4334.5388,N,00357.4173,E,0.09,0.00,210226,,,A*7E
$GNGGA,074601.250,4334.5388,N,00357.4173,E,1,6,1.73,-0.2,M,49.7,M,,*61
$GNRMC,074601.250,A,4334.5388,N,00357.4173,E,0.08,0.00,210226,,,A*78
$GNGGA,074601.500,4334.5388,N,00357.4173,E,1,6,1.73,-0.1,M,49.7,M,,*60
$GNRMC,074601.500,A,4334.5388,N,00357.4173,E,0.08,0.00,210226,,,A*7A
$GNGGA,074601.750,4334.5389,N,00357.4173,E,1,6,1.73,0.0,M,49.7,M,,*4A
$GNRMC,074601.750,A,4334.5389,N,00357.4173,E,0.05,0.00,210226,,,A*71
$GNGGA,074602.000,4334.5388,N,00357.4173,E,1,6,1.73,0.1,M,49.7,M,,*4B
$GNRMC,074602.000,A,4334.5388,N,00357.4173,E,0.04,0.00,210226,,,A*70
$GNGGA,074602.250,4334.5389,N,00357.4173,E,1,6,1.73,0.2,M,49.7,M,,*4E
$GNRMC,074602.250,A,4334.5389,N,00357.4173,E,0.07,0.00,210226,,,A*75
$GNGGA,074602.500,4334.5389,N,00357.4173,E,1,6,1.73,0.3,M,49.7,M,,*4D
$GNRMC,074602.500,A,4334.5389,N,00357.4173,E,0.08,0.00,210226,,,A*78
$GNGGA,074602.750,4334.5389,N,00357.4174,E,1,6,1.73,0.5,M,49.7,M,,*4B
$GNRMC,074602.750,A,4334.5389,N,00357.4174,E,0.08,0.00,210226,,,A*78
$GNGGA,074603.000,4334.5389,N,00357.4174,E,1,6,1.73,0.6,M,49.7,M,,*4B
$GNRMC,074603.000,A,4334.5389,N,00357.4174,E,0.08,0.00,210226,,,A*7B
$GNGGA,074603.250,4334.5388,N,00357.4174,E,1,6,1.73,0.9,M,49.7,M,,*42
$GNRMC,074603.250,A,4334.5388,N,00357.4174,E,0.03,0.00,210226,,,A*76
$GNGGA,074603.500,4334.5389,N,00357.4174,E,1,6,1.73,1.2,M,49.7,M,,*4B
$GNRMC,074603.500,A,4334.5389,N,00357.4174,E,0.10,0.00,210226,,,A*77
$GNGGA,074603.750,4334.5390,N,00357.4175,E,1,6,1.73,1.6,M,49.7,M,,*41
$GNRMC,074603.750,A,4334.5390,N,00357.4175,E,0.19,0.00,210226,,,A*70
$GNGGA,074604.000,4334.5390,N,00357.4174,E,1,6,1.73,1.9,M,49.7,M,,*4A
$GNRMC,074604.000,A,4334.5390,N,00357.4174,E,0.19,0.00,210226,,,A*74
$GNGGA,074604.250,4334.5392,N,00357.4173,E,1,6,1.73,2.1,M,49.7,M,,*43
$GNRMC,074604.250,A,4334.5392,N,00357.4173,E,0.35,0.00,210226,,,A*78
$GNGGA,074604.500,4334.5392,N,00357.4173,E,1,6,1.73,2.4,M,49.7,M,,*44
$GNRMC,074604.500,A,4334.5392,N,00357.4173,E,0.34,0.00,210226,,,A*7B
$GNGGA,074604.750,4334.5393,N,00357.4173,E,1,6,1.73,2.6,M,49.7,M,,*40
$GNRMC,074604.750,A,4334.5393,N,00357.4173,E,0.34,0.00,210226,,,A*7D
$GNGGA,074605.000,4334.5393,N,00357.4173,E,1,6,1.73,2.9,M,49.7,M,,*4C
$GNRMC,074605.000,A,4334.5393,N,00357.4173,E,0.32,0.00,210226,,,A*78
$GNGGA,074605.250,4334.5393,N,00357.4173,E,1,6,1.73,3.1,M,49.7,M,,*42
$GNRMC,074605.250,A,4334.5393,N,00357.4173,E,0.29,0.00,210226,,,A*75
$GNGGA,074605.500,4334.5393,N,00357.4173,E,1,6,1.73,3.3,M,49.7,M,,*42
$GNRMC,074605.500,A,4334.5393,N,00357.4173,E,0.30,0.00,210226,,,A*7F
$GNGGA,074605.750,4334.5394,N,00357.4173,E,1,6,1.73,3.4,M,49.7,M,,*45
$GNRMC,074605.750,A,4334.5394,N,00357.4173,E,0.32,0.00,210226,,,A*7D
$GNGGA,074606.000,4334.5394,N,00357.4172,E,1,6,1.73,3.6,M,49.7,M,,*47
$GNRMC,074606.000,A,4334.5394,N,00357.4172,E,0.31,0.00,210226,,,A*7E
$GNGGA,074606.250,4334.5394,N,00357.4172,E,1,6,1.73,3.8,M,49.7,M,,*4E
$GNRMC,074606.250,A,4334.5394,N,00357.4172,E,0.29,0.00,210226,,,A*70
$GNGGA,074606.500,4334.5395,N,00357.4172,E,1,6,1.73,3.9,M,49.7,M,,*4C
$GNRMC,074606.500,A,4334.5395,N,00357.4172,E,0.34,0.00,210226,,,A*7F
$GNGGA,074606.750,4334.5397,N,00357.4171,E,1,6,1.73,3.9,M,49.7,M,,*4A
$GNRMC,074606.750,A,4334.5397,N,00357.4171,E,0.52,0.00,210226,,,A*79
$GNGGA,074607.000,4334.5396,N,00357.4171,E,1,6,1.73,3.9,M,49.7,M,,*48
$GNRMC,074607.000,A,4334.5396,N,00357.4171,E,0.43,0.00,210226,,,A*7B
$GNGGA,074607.250,4334.5396,N,00357.4170,E,1,6,1.73,3.9,M,49.7,M,,*4E
$GNRMC,074607.250,A,4334.5396,N,00357.4170,E,0.45,0.00,210226,,,A*7B
$GNGGA,074607.500,4334.5397,N,00357.4169,E,1,6,1.73,3.8,M,49.7,M,,*44
$GNRMC,074607.500,A,4334.5397,N,00357.4169,E,0.53,0.00,210226,,,A*77
$GNGGA,074607.750,4334.5398,N,00357.4168,E,1,6,1.73,3.8,M,49.7,M,,*4D
$GNRMC,074607.750,A,4334.5398,N,00357.4168,E,0.65,339.47,210226,,,A*71
$GNGGA,074608.000,4334.5397,N,00357.4168,E,1,6,1.73,3.7,M,49.7,M,,*40
$GNRMC,074608.000,A,4334.5397,N,00357.4168,E,0.47,339.47,210226,,,A*73
$GNGGA,074608.250,4334.5397,N,00357.4167,E,1,6,1.73,3.6,M,49.7,M,,*49
$GNRMC,074608.250,A,4334.5397,N,00357.4167,E,0.37,339.47,210226,,,A*7C
$GNGGA,074608.500,4334.5400,N,00357.4164,E,1,6,1.73,3.5,M,49.7,M,,*42
$GNRMC,074608.500,A,4334.5400,N,00357.4164,E,0.71,336.53,210226,,,A*7C
$GNGGA,074608.750,4334.5400,N,00357.4163,E,1,6,1.73,3.5,M,49.7,M,,*42
$GNRMC,074608.750,A,4334.5400,N,00357.4163,E,0.77,335.76,210226,,,A*7E
$GNGGA,074609.000,4334.5399,N,00357.4163,E,1,6,1.73,3.3,M,49.7,M,,*40
$GNRMC,074609.000,A,4334.5399,N,00357.4163,E,0.64,332.36,210226,,,A*7B
$GNGGA,074609.250,4334.5399,N,00357.4162,E,1,6,1.73,3.2,M,49.7,M,,*47
$GNRMC,074609.250,A,4334.5399,N,00357.4162,E,0.65,328.95,210226,,,A*7E
$GNGGA,074609.500,4334.5400,N,00357.4161,E,1,6,1.73,3.0,M,49.7,M,,*43
$GNRMC,074609.500,A,4334.5400,N,00357.4161,E,0.63,327.23,210226,,,A*7C
$GNGGA,074609.750,4334.5401,N,00357.4160,E,1,6,1.73,2.9,M,49.7,M,,*4C
$GNRMC,074609.750,A,4334.5401,N,00357.4160,E,0.72,332.68,210226,,,A*70
$GNGGA,074610.000,4334.5400,N,00357.4160,E,1,6,1.73,2.8,M,49.7,M,,*46
$GNRMC,074610.000,A,4334.5400,N,00357.4160,E,0.59,334.44,210226,,,A*7A
$GNGGA,074610.250,4334.5400,N,00357.4160,E,1,6,1.73,2.8,M,49.7,M,,*41
$GNRMC,074610.250,A,4334.5400,N,00357.4160,E,0.00,335.13,210226,,,A*72
$GNGGA,074610.500,4334.5400,N,00357.4159,E,1,6,1.73,2.8,M,49.7,M,,*49
$GNRMC,074610.500,A,4334.5400,N,00357.4159,E,0.00,337.71,210226,,,A*7C
$GNGGA,074610.750,4334.5401,N,00357.4159,E,1,6,1.73,2.8,M,49.7,M,,*4F
$GNRMC,074610.750,A,4334.5401,N,00357.4159,E,0.00,340.35,210226,,,A*7A
$GNGGA,074611.000,4334.5401,N,00357.4159,E,1,6,1.73,2.8,M,49.7,M,,*4C
$GNRMC,074611.000,A,4334.5401,N,00357.4159,E,0.00,340.35,210226,,,A*79
$GNGGA,074611.250,4334.5401,N,00357.4159,E,1,6,1.73,2.8,M,49.7,M,,*4B
$GNRMC,074611.250,A,4334.5401,N,00357.4159,E,0.00,340.35,210226,,,A*7E
$GNGGA,074611.500,4334.5401,N,00357.4159,E,1,6,1.73,2.8,M,49.7,M,,*49
$GNRMC,074611.500,A,4334.5401,N,00357.4159,E,0.00,340.35,210226,,,A*7C
$GNGGA,074611.750,4334.5401,N,00357.4159,E,1,6,1.73,2.8,M,49.7,M,,*4E
$GNRMC,074611.750,A,4334.5401,N,00357.4159,E,0.00,340.35,210226,,,A*7B
$GNGGA,074612.000,4334.5401,N,00357.4159,E,1,6,1.73,2.8,M,49.7,M,,*4F
$GNRMC,074612.000,A,4334.5401,N,00357.4159,E,0.00,340.35,210226,,,A*7A
$GNGGA,074612.250,4334.5401,N,00357.4159,E,1,6,1.73,2.8,M,49.7,M,,*48
$GNRMC,074612.250,A,4334.5401,N,00357.4159,E,0.00,340.35,210226,,,A*7D
$GNGGA,074612.500,4334.5401,N,00357.4159,E,1,6,1.73,2.8,M,49.7,M,,*4A
$GNRMC,074612.500,A,4334.5401,N,00357.4159,E,0.00,340.35,210226,,,A*7F
$GNGGA,074612.750,4334.5401,N,00357.4159,E,1,6,1.73,2.8,M,49.7,M,,*4D
$GNRMC,074612.750,A,4334.5401,N,00357.4159,E,0.00,340.35,210226,,,A*78
$GNGGA,074613.000,4334.5401,N,00357.4159,E,1,6,1.73,2.8,M,49.7,M,,*4E
$GNRMC,074613.000,A,4334.5401,N,00357.4159,E,0.00,340.35,210226,,,A*7B
$GNGGA,074613.250,4334.5401,N,00357.4159,E,1,6,1.73,2.8,M,49.7,M,,*49
$GNRMC,074613.250,A,4334.5401,N,00357.4159,E,0.00,340.35,210226,,,A*7C
$GNGGA,074613.500,4334.5401,N,00357.4159,E,1,6,1.73,2.8,M,49.7,M,,*4B
$GNRMC,074613.500,A,4334.5401,N,00357.4159,E,0.00,340.35,210226,,,A*7E
$GNGGA,074613.750,4334.5401,N,00357.4159,E,1,6,1.73,2.8,M,49.7,M,,*4C
$GNRMC,074613.750,A,4334.5401,N,00357.4159,E,0.00,340.35,210226,,,A*79
$GNGGA,074614.000,4334.5401,N,00357.4159,E,1,6,1.73,2.8,M,49.7,M,,*49
$GNRMC,074614.000,A,4334.5401,N,00357.4159,E,0.00,340.35,210226,,,A*7C
$GNGGA,074614.250,4334.5401,N,00357.4159,E,1,6,1.73,2.8,M,49.7,M,,*4E
$GNRMC,074614.250,A,4334.5401,N,00357.4159,E,0.00,340.35,210226,,,A*7B
$GNGGA,074614.500,4334.5401,N,00357.4159,E,1,6,1.73,2.8,M,49.7,M,,*4C
$GNRMC,074614.500,A,4334.5401,N,00357.4159,E,1.23,315.03,210226,,,A*7C
$GNGGA,074614.750,4334.5399,N,00357.4154,E,1,6,1.73,1.6,M,49.7,M,,*4D
$GNRMC,074614.750,A,4334.5399,N,00357.4154,E,1.66,330.15,210226,,,A*71
$GNGGA,074615.000,4334.5399,N,00357.4154,E,1,6,1.73,1.5,M,49.7,M,,*4D
$GNRMC,074615.000,A,4334.5399,N,00357.4154,E,0.94,332.29,210226,,,A*73
$GNGGA,074615.250,4334.5399,N,00357.4154,E,1,6,1.73,1.4,M,49.7,M,,*4B
$GNRMC,074615.250,A,4334.5399,N,00357.4154,E,0.00,338.04,210226,,,A*7C
$GNGGA,074615.500,4334.5400,N,00357.4154,E,1,6,1.73,1.4,M,49.7,M,,*4E
$GNRMC,074615.500,A,4334.5400,N,00357.4154,E,0.00,339.87,210226,,,A*73
$GNGGA,074615.750,4334.5400,N,00357.4153,E,1,6,1.73,1.3,M,49.7,M,,*49
$GNRMC,074615.750,A,4334.5400,N,00357.4153,E,0.00,342.13,210226,,,A*72
$GNGGA,074616.000,4334.5400,N,00357.4153,E,1,6,1.73,1.3,M,49.7,M,,*48
$GNRMC,074616.000,A,4334.5400,N,00357.4153,E,0.00,342.13,210226,,,A*73
$GNGGA,074616.250,4334.5400,N,00357.4153,E,1,6,1.73,1.3,M,49.7,M,,*4F
$GNRMC,074616.250,A,4334.5400,N,00357.4153,E,0.00,342.13,210226,,,A*74
$GNGGA,074616.500,4334.5400,N,00357.4153,E,1,6,1.73,1.3,M,49.7,M,,*4D
$GNRMC,074616.500,A,4334.5400,N,00357.4153,E,0.00,342.13,210226,,,A*76
$GNGGA,074616.750,4334.5400,N,00357.4153,E,1,6,1.73,1.3,M,49.7,M,,*4A
$GNRMC,074616.750,A,4334.5400,N,00357.4153,E,0.00,342.13,210226,,,A*71
$GNGGA,074617.000,4334.5400,N,00357.4153,E,1,6,1.73,1.3,M,49.7,M,,*49
$GNRMC,074617.000,A,4334.5400,N,00357.4153,E,0.00,342.13,210226,,,A*72
$GNGGA,074617.250,4334.5400,N,00357.4153,E,1,6,1.73,1.3,M,49.7,M,,*4E
$GNRMC,074617.250,A,4334.5400,N,00357.4153,E,0.00,342.13,210226,,,A*75
$GNGGA,074617.500,4334.5400,N,00357.4153,E,1,6,1.73,1.3,M,49.7,M,,*4C
$GNRMC,074617.500,A,4334.5400,N,00357.4153,E,0.00,342.13,210226,,,A*77
$GNGGA,074617.750,4334.5400,N,00357.4153,E,1,6,1.73,1.3,M,49.7,M,,*4B
$GNRMC,074617.750,A,4334.5400,N,00357.4153,E,0.00,342.13,210226,,,A*70
$GNGGA,074618.000,4334.5400,N,00357.4153,E,1,6,1.73,1.3,M,49.7,M,,*46
$GNRMC,074618.000,A,4334.5400,N,00357.4153,E,0.00,342.13,210226,,,A*7D
$GNGGA,074618.250,4334.5400,N,00357.4153,E,1,8,1.45,1.3,M,49.7,M,,*4A
$GNRMC,074618.250,A,4334.5400,N,00357.4153,E,0.00,342.13,210226,,,A*7A
$GNGGA,074618.500,4334.5400,N,00357.4153,E,1,8,1.45,1.3,M,49.7,M,,*48
$GNRMC,074618.500,A,4334.5400,N,00357.4153,E,0.00,342.13,210226,,,A*78
$GNGGA,074618.750,4334.5400,N,00357.4153,E,1,8,1.45,1.3,M,49.7,M,,*4F
$GNRMC,074618.750,A,4334.5400,N,00357.4153,E,0.00,342.13,210226,,,A*7F
$GNGGA,074619.000,4334.5400,N,00357.4153,E,1,8,1.45,1.3,M,49.7,M,,*4C
$GNRMC,074619.000,A,4334.5400,N,00357.4153,E,0.00,342.13,210226,,,A*7C
$GNGGA,074619.250,4334.5400,N,00357.4153,E,1,8,1.45,1.3,M,49.7,M,,*4B
$GNRMC,074619.250,A,4334.5400,N,00357.4153,E,0.00,342.13,210226,,,A*7B
$GNGGA,074619.500,4334.5400,N,00357.4153,E,1,8,1.45,1.3,M,49.7,M,,*49
$GNRMC,074619.500,A,4334.5400,N,00357.4153,E,0.00,342.13,210226,,,A*79
$GNGGA,074619.750,4334.5400,N,00357.4153,E,1,8,1.45,1.3,M,49.7,M,,*4E
$GNRMC,074619.750,A,4334.5400,N,00357.4153,E,0.00,342.13,210226,,,A*7E
$GNGGA,074620.000,4334.5400,N,00357.4153,E,1,8,1.45,1.3,M,49.7,M,,*46
$GNRMC,074620.000,A,4334.5400,N,00357.4153,E,0.00,342.13,210226,,,A*76
$GNGGA,074620.250,4334.5400,N,00357.4153,E,1,8,1.45,1.3,M,49.7,M,,*41
$GNRMC,074620.250,A,4334.5400,N,00357.4153,E,0.00,342.13,210226,,,A*71
$GNGGA,074620.500,4334.5400,N,00357.4153,E,1,8,1.45,1.3,M,49.7,M,,*43
$GNRMC,074620.500,A,4334.5400,N,00357.4153,E,0.00,342.13,210226,,,A*73
$GNGGA,074620.750,4334.5400,N,00357.4153,E,1,8,1.45,1.3,M,49.7,M,,*44
$GNRMC,074620.750,A,4334.5400,N,00357.4153,E,0.00,342.13,210226,,,A*74
$GNGGA,074621.000,4334.5400,N,00357.4153,E,1,8,1.45,1.3,M,49.7,M,,*47
$GNRMC,074621.000,A,4334.5400,N,00357.4153,E,0.00,342.13,210226,,,A*77
$GNGGA,074621.250,4334.5400,N,00357.4153,E,1,8,1.45,1.3,M,49.7,M,,*40
$GNRMC,074621.250,A,4334.5400,N,00357.4153,E,0.00,342.13,210226,,,A*70
$GNGGA,074621.500,4334.5400,N,00357.4153,E,1,8,1.45,1.3,M,49.7,M,,*42
$GNRMC,074621.500,A,4334.5400,N,00357.4153,E,0.00,342.13,210226,,,A*72
$GNGGA,074621.750,4334.5400,N,00357.4153,E,1,8,1.45,1.3,M,49.7,M,,*45
$GNRMC,074621.750,A,4334.5400,N,00357.4153,E,0.00,342.13,210226,,,A*75
$GNGGA,074622.000,4334.5400,N,00357.4153,E,1,8,1.45,1.3,M,49.7,M,,*44
$GNRMC,074622.000,A,4334.5400,N,00357.4153,E,0.00,342.13,210226,,,A*74
$GNGGA,074622.250,4334.5400,N,00357.4153,E,1,8,1.45,1.3,M,49.7,M,,*43
$GNRMC,074622.250,A,4334.5400,N,00357.4153,E,0.00,342.13,210226,,,A*73
$GNGGA,074622.500,4334.5400,N,00357.4153,E,1,8,1.45,1.3,M,49.7,M,,*41
$GNRMC,074622.500,A,4334.5400,N,00357.4153,E,0.00,342.13,210226,,,A*71
$GNGGA,074622.750,4334.5400,N,00357.4153,E,1,8,1.45,1.3,M,49.7,M,,*46
$GNRMC,074622.750,A,4334.5400,N,00357.4153,E,0.00,342.13,210226,,,A*76
$GNGGA,074623.000,4334.5400,N,00357.4153,E,1,8,1.45,1.3,M,49.7,M,,*45
$GNRMC,074623.000,A,4334.5400,N,00357.4153,E,0.00,342.13,210226,,,A*75
$GNGGA,074623.250,4334.5400,N,00357.4153,E,1,8,1.45,1.3,M,49.7,M,,*42
$GNRMC,074623.250,A,4334.5400,N,00357.4153,E,0.00,342.13,210226,,,A*72
$GNGGA,074623.500,4334.5400,N,00357.4153,E,1,8,1.45,1.3,M,49.7,M,,*40
$GNRMC,074623.500,A,4334.5400,N,00357.4153,E,0.00,342.13,210226,,,A*70
$GNGGA,074623.750,4334.5400,N,00357.4153,E,1,8,1.45,1.3,M,49.7,M,,*47
$GNRMC,074623.750,A,4334.5400,N,00357.4153,E,0.00,342.13,210226,,,A*77
$GNGGA,074624.000,4334.5400,N,00357.4153,E,1,8,1.45,1.3,M,49.7,M,,*42
$GNRMC,074624.000,A,4334.5400,N,00357.4153,E,0.00,342.13,210226,,,A*72
$GNGGA,074624.250,4334.5400,N,00357.4153,E,1,8,1.45,1.3,M,49.7,M,,*45
$GNRMC,074624.250,A,4334.5400,N,00357.4153,E,0.00,342.13,210226,,,A*75
$GNGGA,074624.500,4334.5400,N,00357.4153,E,1,8,1.45,1.3,M,49.7,M,,*47
$GNRMC,074624.500,A,4334.5400,N,00357.4153,E,0.00,342.13,210226,,,A*77
$GNGGA,074624.750,4334.5400,N,00357.4153,E,1,8,1.45,1.3,M,49.7,M,,*40
$GNRMC,074624.750,A,4334.5400,N,00357.4153,E,0.00,342.13,210226,,,A*70
$GNGGA,074625.000,4334.5400,N,00357.4153,E,1,8,1.45,1.3,M,49.7,M,,*43
$GNRMC,074625.000,A,4334.5400,N,00357.4153,E,0.00,342.13,210226,,,A*73
$GNGGA,074625.250,4334.5400,N,00357.4153,E,1,8,1.45,1.3,M,49.7,M,,*44
$GNRMC,074625.250,A,4334.5400,N,00357.4153,E,0.00,342.13,210226,,,A*74
$GNGGA,074625.500,4334.5400,N,00357.4153,E,1,8,1.45,1.3,M,49.7,M,,*46
$GNRMC,074625.500,A,4334.5400,N,00357.4153,E,0.00,342.13,210226,,,A*76
$GNGGA,074625.750,4334.5400,N,00357.4153,E,1,8,1.45,1.3,M,49.7,M,,*41
$GNRMC,074625.750,A,4334.5400,N,00357.4153,E,0.00,342.13,210226,,,A*71
$GNGGA,074626.000,4334.5400,N,00357.4153,E,1,8,1.45,1.3,M,49.7,M,,*40
$GNRMC,074626.000,A,4334.5400,N,00357.4153,E,0.00,342.13,210226,,,A*70
$GNGGA,074626.250,4334.5400,N,00357.4153,E,1,8,1.45,1.3,M,49.7,M,,*47
$GNRMC,074626.250,A,4334.5400,N,00357.4153,E,0.00,342.13,210226,,,A*77
$GNGGA,074626.500,4334.5400,N,00357.4153,E,1,8,1.45,1.3,M,49.7,M,,*45
$GNRMC,074626.500,A,4334.5400,N,00357.4153,E,0.00,342.13,210226,,,A*75
$GNGGA,074626.750,4334.5400,N,00357.4153,E,1,8,1.45,1.3,M,49.7,M,,*42
$GNRMC,074626.750,A,4334.5400,N,00357.4153,E,0.00,342.13,210226,,,A*72
$GNGGA,074627.000,4334.5400,N,00357.4153,E,1,8,1.45,1.3,M,49.7,M,,*41
$GNRMC,074627.000,A,4334.5400,N,00357.4153,E,0.00,342.13,210226,,,A*71
$GNGGA,074627.250,4334.5400,N,00357.4153,E,1,8,1.45,1.3,M,49.7,M,,*46
$GNRMC,074627.250,A,4334.5400,N,00357.4153,E,0.00,342.13,210226,,,A*76
$GNGGA,074627.500,4334.5400,N,00357.4153,E,1,8,1.45,1.3,M,49.7,M,,*44
$GNRMC,074627.500,A,4334.5400,N,00357.4153,E,0.00,342.13,210226,,,A*74
$GNGGA,074627.750,4334.5400,N,00357.4153,E,1,8,1.45,1.3,M,49.7,M,,*43
$GNRMC,074627.750,A,4334.5400,N,00357.4153,E,0.00,342.13,210226,,,A*73
$GNGGA,074628.000,4334.5400,N,00357.4153,E,1,8,1.45,1.3,M,49.7,M,,*4E
$GNRMC,074628.000,A,4334.5400,N,00357.4153,E,0.00,342.13,210226,,,A*7E
$GNGGA,074628.250,4334.5400,N,00357.4153,E,1,8,1.45,1.3,M,49.7,M,,*49
$GNRMC,074628.250,A,4334.5400,N,00357.4153,E,0.00,342.13,210226,,,A*79
$GNGGA,074628.500,4334.5400,N,00357.4153,E,1,8,1.45,1.3,M,49.7,M,,*4B
$GNRMC,074628.500,A,4334.5400,N,00357.4153,E,0.00,342.13,210226,,,A*7B
$GNGGA,074628.750,4334.5400,N,00357.4153,E,1,8,1.45,1.3,M,49.7,M,,*4C
$GNRMC,074628.750,A,4334.5400,N,00357.4153,E,0.00,342.13,210226,,,A*7C
$GNGGA,074629.000,4334.5400,N,00357.4153,E,1,8,1.45,1.3,M,49.7,M,,*4F
$GNRMC,074629.000,A,4334.5400,N,00357.4153,E,0.00,342.13,210226,,,A*7F
$GNGGA,074629.250,4334.5400,N,00357.4153,E,1,8,1.45,1.3,M,49.7,M,,*48
$GNRMC,074629.250,A,4334.5400,N,00357.4153,E,0.00,342.13,210226,,,A*78
$GNGGA,074629.500,4334.5400,N,00357.4153,E,1,8,1.45,1.3,M,49.7,M,,*4A
$GNRMC,074629.500,A,4334.5400,N,00357.4153,E,0.00,342.13,210226,,,A*7A
$GNGGA,074629.750,4334.5400,N,00357.4153,E,1,8,1.45,1.3,M,49.7,M,,*4D
$GNRMC,074629.750,A,4334.5400,N,00357.4153,E,0.00,342.13,210226,,,A*7D
$GNGGA,074630.000,4334.5400,N,00357.4153,E,1,8,1.45,1.3,M,49.7,M,,*47
$GNRMC,074630.000,A,4334.5400,N,00357.4153,E,0.00,342.13,210226,,,A*77
$GNGGA,074630.250,4334.5400,N,00357.4153,E,1,12,1.13,1.3,M,49.7,M,,*78
$GNRMC,074630.250,A,4334.5400,N,00357.4153,E,0.00,342.13,210226,,,A*70
$GNGGA,074630.500,4334.5400,N,00357.4153,E,1,12,1.13,1.3,M,49.7,M,,*7A
$GNRMC,074630.500,A,4334.5400,N,00357.4153,E,0.00,342.13,210226,,,A*72
$GNGGA,074630.750,4334.5400,N,00357.4153,E,1,12,1.13,1.3,M,49.7,M,,*7D
$GNRMC,074630.750,A,4334.5400,N,00357.4153,E,0.00,342.13,210226,,,A*75
$GNGGA,074631.000,4334.5400,N,00357.4153,E,1,12,1.13,1.3,M,49.7,M,,*7E
$GNRMC,074631.000,A,4334.5400,N,00357.4153,E,0.00,342.13,210226,,,A*76
$GNGGA,074631.250,4334.5400,N,00357.4153,E,1,12,1.13,1.3,M,49.7,M,,*79
$GNRMC,074631.250,A,4334.5400,N,00357.4153,E,0.00,342.13,210226,,,A*71
$GNGGA,074631.500,4334.5400,N,00357.4153,E,1,12,1.13,1.3,M,49.7,M,,*7B
$GNRMC,074631.500,A,4334.5400,N,00357.4153,E,0.00,342.13,210226,,,A*73
$GNGGA,074631.750,4334.5400,N,00357.4153,E,1,12,1.13,1.3,M,49.7,M,,*7C
$GNRMC,074631.750,A,4334.5400,N,00357.4153,E,0.00,342.13,210226,,,A*74
$GNGGA,074632.000,4334.5400,N,00357.4153,E,1,12,1.13,1.3,M,49.7,M,,*7D
$GNRMC,074632.000,A,4334.5400,N,00357.4153,E,0.00,342.13,210226,,,A*75
$GNGGA,074632.250,4334.5400,N,00357.4153,E,1,12,1.13,1.3,M,49.7,M,,*7A
$GNRMC,074632.250,A,4334.5400,N,00357.4153,E,0.00,342.13,210226,,,A*72
$GNGGA,074632.500,4334.5400,N,00357.4153,E,1,12,1.13,1.3,M,49.7,M,,*78
$GNRMC,074632.500,A,4334.5400,N,00357.4153,E,0.00,342.13,210226,,,A*70
$GNGGA,074632.750,4334.5400,N,00357.4153,E,1,12,1.13,1.3,M,49.7,M,,*7F
$GNRMC,074632.750,A,4334.5400,N,00357.4153,E,0.00,342.13,210226,,,A*77
$GNGGA,074633.000,4334.5400,N,00357.4153,E,1,12,1.13,1.3,M,49.7,M,,*7C
$GNRMC,074633.000,A,4334.5400,N,00357.4153,E,0.00,342.13,210226,,,A*74
$GNGGA,074633.250,4334.5400,N,00357.4153,E,1,12,1.13,1.3,M,49.7,M,,*7B
$GNRMC,074633.250,A,4334.5400,N,00357.4153,E,0.00,342.13,210226,,,A*73
$GNGGA,074633.500,4334.5400,N,00357.4153,E,1,12,1.13,1.3,M,49.7,M,,*79
$GNRMC,074633.500,A,4334.5400,N,00357.4153,E,0.00,342.13,210226,,,A*71
$GNGGA,074633.750,4334.5400,N,00357.4153,E,1,12,1.13,1.3,M,49.7,M,,*7E
$GNRMC,074633.750,A,4334.5400,N,00357.4153,E,0.00,342.13,210226,,,A*76
$GNGGA,074634.000,4334.5400,N,00357.4153,E,1,12,1.13,1.3,M,49.7,M,,*7B
$GNRMC,074634.000,A,4334.5400,N,00357.4153,E,0.00,342.13,210226,,,A*73
$GNGGA,074634.250,4334.5400,N,00357.4153,E,1,12,1.13,1.3,M,49.7,M,,*7C
$GNRMC,074634.250,A,4334.5400,N,00357.4153,E,0.00,342.13,210226,,,A*74
$GNGGA,074634.500,4334.5400,N,00357.4153,E,1,12,1.13,1.3,M,49.7,M,,*7E
$GNRMC,074634.500,A,4334.5400,N,00357.4153,E,0.00,342.13,210226,,,A*76
$GNGGA,074634.750,4334.5400,N,00357.4153,E,1,12,1.13,1.3,M,49.7,M,,*79
$GNRMC,074634.750,A,4334.5400,N,00357.4153,E,0.00,342.13,210226,,,A*71
$GNGGA,074635.000,4334.5400,N,00357.4153,E,1,12,1.13,1.3,M,49.7,M,,*7A
$GNRMC,074635.000,A,4334.5400,N,00357.4153,E,0.00,342.13,210226,,,A*72
$GNGGA,074635.250,4334.5400,N,00357.4153,E,1,12,1.13,1.3,M,49.7,M,,*7D
$GNRMC,074635.250,A,4334.5400,N,00357.4153,E,0.00,342.13,210226,,,A*75
$GNGGA,074635.500,4334.5400,N,00357.4153,E,1,12,1.13,1.3,M,49.7,M,,*7F
$GNRMC,074635.500,A,4334.5400,N,00357.4153,E,0.00,342.13,210226,,,A*77
$GNGGA,074635.750,4334.5400,N,00357.4153,E,1,12,1.13,1.3,M,49.7,M,,*78
$GNRMC,074635.750,A,4334.5400,N,00357.4153,E,0.00,342.13,210226,,,A*70
$GNGGA,074636.000,4334.5400,N,00357.4153,E,1,12,1.13,1.3,M,49.7,M,,*79
$GNRMC,074636.000,A,4334.5400,N,00357.4153,E,0.00,342.13,210226,,,A*71
$GNGGA,074636.250,4334.5400,N,00357.4153,E,1,12,1.13,1.3,M,49.7,M,,*7E
$GNRMC,074636.250,A,4334.5400,N,00357.4153,E,0.00,342.13,210226,,,A*76
$GNGGA,074636.500,4334.5400,N,00357.4153,E,1,12,1.13,1.3,M,49.7,M,,*7C
$GNRMC,074636.500,A,4334.5400,N,00357.4153,E,0.00,342.13,210226,,,A*74
$GNGGA,074636.750,4334.5400,N,00357.4153,E,1,12,1.13,1.3,M,49.7,M,,*7B
$GNRMC,074636.750,A,4334.5400,N,00357.4153,E,0.00,342.13,210226,,,A*73
$GNGGA,074637.000,4334.5400,N,00357.4153,E,1,12,1.13,1.3,M,49.7,M,,*78
$GNRMC,074637.000,A,4334.5400,N,00357.4153,E,0.00,342.13,210226,,,A*70
$GNGGA,074637.250,4334.5400,N,00357.4153,E,1,15,1.10,1.3,M,49.7,M,,*7B
$GNRMC,074637.250,A,4334.5400,N,00357.4153,E,0.00,342.13,210226,,,A*77
$GNGGA,074637.500,4334.5400,N,00357.4153,E,1,15,1.10,1.3,M,49.7,M,,*79
$GNRMC,074637.500,A,4334.5400,N,00357.4153,E,0.00,342.13,210226,,,A*75
$GNGGA,074637.750,4334.5400,N,00357.4153,E,1,15,1.10,1.3,M,49.7,M,,*7E
$GNRMC,074637.750,A,4334.5400,N,00357.4153,E,0.00,342.13,210226,,,A*72
$GNGGA,074638.000,4334.5400,N,00357.4153,E,1,15,1.10,1.3,M,49.7,M,,*73
$GNRMC,074638.000,A,4334.5400,N,00357.4153,E,0.00,342.13,210226,,,A*7F
$GNGGA,074638.250,4334.5400,N,00357.4153,E,1,15,1.10,1.3,M,49.7,M,,*74
$GNRMC,074638.250,A,4334.5400,N,00357.4153,E,0.00,342.13,210226,,,A*78
$GNGGA,074638.500,4334.5400,N,00357.4153,E,1,15,1.10,1.3,M,49.7,M,,*76
$GNRMC,074638.500,A,4334.5400,N,00357.4153,E,0.00,342.13,210226,,,A*7A
$GNGGA,074638.750,4334.5400,N,00357.4153,E,1,15,1.10,1.3,M,49.7,M,,*71
$GNRMC,074638.750,A,4334.5400,N,00357.4153,E,0.00,342.13,210226,,,A*7D
$GNGGA,074639.000,4334.5400,N,00357.4153,E,1,15,1.10,1.3,M,49.7,M,,*72
$GNRMC,074639.000,A,4334.5400,N,00357.4153,E,0.00,342.13,210226,,,A*7E
$GNGGA,074639.250,4334.5400,N,00357.4153,E,1,15,1.10,1.3,M,49.7,M,,*75
$GNRMC,074639.250,A,4334.5400,N,00357.4153,E,0.00,342.13,210226,,,A*79
$GNGGA,074639.500,4334.5400,N,00357.4153,E,1,15,1.10,1.3,M,49.7,M,,*77
$GNRMC,074639.500,A,4334.5400,N,00357.4153,E,0.00,342.13,210226,,,A*7B
$GNGGA,074639.750,4334.5400,N,00357.4153,E,1,15,1.10,1.3,M,49.7,M,,*70
$GNRMC,074639.750,A,4334.5400,N,00357.4153,E,0.00,342.13,210226,,,A*7C
$GNGGA,074640.000,4334.5400,N,00357.4153,E,1,17,1.01,1.3,M,49.7,M,,*7E
$GNRMC,074640.000,A,4334.5400,N,00357.4153,E,0.00,342.13,210226,,,A*70
$GNGGA,074640.250,4334.5400,N,00357.4153,E,1,17,1.01,1.3,M,49.7,M,,*79
$GNRMC,074640.250,A,4334.5400,N,00357.4153,E,0.00,342.13,210226,,,A*77
$GNGGA,074640.500,4334.5400,N,00357.4153,E,1,18,0.74,1.3,M,49.7,M,,*77
$GNRMC,074640.500,A,4334.5400,N,00357.4153,E,0.00,342.13,210226,,,A*75
$GNGGA,074640.750,4334.5400,N,00357.4153,E,1,18,0.74,1.3,M,49.7,M,,*70
$GNRMC,074640.750,A,4334.5400,N,00357.4153,E,0.00,342.13,210226,,,A*72
$GNGGA,074641.000,4334.5400,N,00357.4153,E,1,18,0.75,1.3,M,49.7,M,,*72
$GNRMC,074641.000,A,4334.5400,N,00357.4153,E,0.00,342.13,210226,,,A*71
$GNGGA,074641.250,4334.5400,N,00357.4153,E,1,18,0.75,1.3,M,49.7,M,,*75
$GNRMC,074641.250,A,4334.5400,N,00357.4153,E,0.00,342.13,210226,,,A*76
$GNGGA,074641.500,4334.5400,N,00357.4153,E,1,18,0.75,1.3,M,49.7,M,,*77
$GNRMC,074641.500,A,4334.5400,N,00357.4153,E,0.00,342.13,210226,,,A*74
$GNGGA,074641.750,4334.5400,N,00357.4153,E,1,18,0.74,1.3,M,49.7,M,,*71
$GNRMC,074641.750,A,4334.5400,N,00357.4153,E,0.00,342.13,210226,,,A*73
$GNGGA,074642.000,4334.5400,N,00357.4153,E,1,18,0.75,1.3,M,49.7,M,,*71
$GNRMC,074642.000,A,4334.5400,N,00357.4153,E,0.00,342.13,210226,,,A*72
$GNGGA,074642.250,4334.5400,N,00357.4153,E,1,18,0.75,1.3,M,49.7,M,,*76
$GNRMC,074642.250,A,4334.5400,N,00357.4153,E,0.00,342.13,210226,,,A*75
$GNGGA,074642.500,4334.5400,N,00357.4153,E,1,18,0.75,1.3,M,49.7,M,,*74
$GNRMC,074642.500,A,4334.5400,N,00357.4153,E,0.00,342.13,210226,,,A*77
$GNGGA,074642.750,4334.5400,N,00357.4153,E,1,18,0.75,1.3,M,49.7,M,,*73
$GNRMC,074642.750,A,4334.5400,N,00357.4153,E,0.00,342.13,210226,,,A*70
$GNGGA,074643.000,4334.5400,N,00357.4153,E,1,18,0.75,1.3,M,49.7,M,,*70
$GNRMC,074643.000,A,4334.5400,N,00357.4153,E,0.00,342.13,210226,,,A*73
$GNGGA,074643.250,4334.5400,N,00357.4153,E,1,18,0.75,1.3,M,49.7,M,,*77
$GNRMC,074643.250,A,4334.5400,N,00357.4153,E,0.00,342.13,210226,,,A*74
$GNGGA,074643.500,4334.5400,N,00357.4153,E,1,18,0.75,1.3,M,49.7,M,,*75
$GNRMC,074643.500,A,4334.5400,N,00357.4153,E,0.00,342.13,210226,,,A*76
$GNGGA,074643.750,4334.5400,N,00357.4153,E,1,18,0.75,1.3,M,49.7,M,,*72
$GNRMC,074643.750,A,4334.5400,N,00357.4153,E,0.00,342.13,210226,,,A*71
$GNGGA,074644.000,4334.5400,N,00357.4153,E,1,18,0.75,1.3,M,49.7,M,,*77
$GNRMC,074644.000,A,4334.5400,N,00357.4153,E,0.00,342.13,210226,,,A*74
$GNGGA,074644.250,4334.5400,N,00357.4153,E,1,18,0.75,1.3,M,49.7,M,,*70
$GNRMC,074644.250,A,4334.5400,N,00357.4153,E,0.00,342.13,210226,,,A*73
$GNGGA,074644.500,4334.5400,N,00357.4153,E,1,18,0.75,1.3,M,49.7,M,,*72
$GNRMC,074644.500,A,4334.5400,N,00357.4153,E,0.00,342.13,210226,,,A*71
$GNGGA,074644.750,4334.5400,N,00357.4153,E,1,18,0.75,1.3,M,49.7,M,,*75
$GNRMC,074644.750,A,4334.5400,N,00357.4153,E,0.00,342.13,210226,,,A*76
$GNGGA,074645.000,4334.5400,N,00357.4153,E,1,18,0.75,1.3,M,49.7,M,,*76
$GNRMC,074645.000,A,4334.5400,N,00357.4153,E,0.00,342.13,210226,,,A*75
$GNGGA,074645.250,4334.5400,N,00357.4153,E,1,18,0.75,1.3,M,49.7,M,,*71
$GNRMC,074645.250,A,4334.5400,N,00357.4153,E,0.00,342.13,210226,,,A*72
$GNGGA,074645.500,4334.5400,N,00357.4153,E,1,18,0.75,1.3,M,49.7,M,,*73
$GNRMC,074645.500,A,4334.5400,N,00357.4153,E,0.00,342.13,210226,,,A*70
$GNGGA,074645.750,4334.5400,N,00357.4153,E,1,18,0.75,1.3,M,49.7,M,,*74
$GNRMC,074645.750,A,4334.5400,N,00357.4153,E,0.00,342.13,210226,,,A*77
$GNGGA,074646.000,4334.5400,N,00357.4153,E,1,18,0.75,1.3,M,49.7,M,,*75
$GNRMC,074646.000,A,4334.5400,N,00357.4153,E,0.00,342.13,210226,,,A*76
$GNGGA,074646.250,4334.5400,N,00357.4153,E,1,18,0.75,1.3,M,49.7,M,,*72
$GNRMC,074646.250,A,4334.5400,N,00357.4153,E,0.00,342.13,210226,,,A*71
$GNGGA,074646.500,4334.5400,N,00357.4153,E,1,18,0.75,1.3,M,49.7,M,,*70
$GNRMC,074646.500,A,4334.5400,N,00357.4153,E,0.00,342.13,210226,,,A*73
$GNGGA,074646.750,4334.5400,N,00357.4153,E,1,18,0.75,1.3,M,49.7,M,,*77
$GNRMC,074646.750,A,4334.5400,N,00357.4153,E,0.00,342.13,210226,,,A*74
$GNGGA,074647.000,4334.5400,N,00357.4153,E,1,18,0.75,1.3,M,49.7,M,,*74
$GNRMC,074647.000,A,4334.5400,N,00357.4153,E,0.00,342.13,210226,,,A*77
$GNGGA,074647.250,4334.5400,N,00357.4153,E,1,18,0.75,1.3,M,49.7,M,,*73
$GNRMC,074647.250,A,4334.5400,N,00357.4153,E,0.00,342.13,210226,,,A*70
$GNGGA,074647.500,4334.5400,N,00357.4153,E,1,18,0.75,1.3,M,49.7,M,,*71
$GNRMC,074647.500,A,4334.5400,N,00357.4153,E,0.00,342.13,210226,,,A*72
$GNGGA,074647.750,4334.5400,N,00357.4153,E,1,18,0.75,1.3,M,49.7,M,,*76
$GNRMC,074647.750,A,4334.5400,N,00357.4153,E,0.00,342.13,210226,,,A*75
$GNGGA,074648.000,4334.5400,N,00357.4153,E,1,18,0.75,1.3,M,49.7,M,,*7B
$GNRMC,074648.000,A,4334.5400,N,00357.4153,E,0.00,342.13,210226,,,A*78
$GNGGA,074648.250,4334.5400,N,00357.4153,E,1,18,0.75,1.3,M,49.7,M,,*7C
$GNRMC,074648.250,A,4334.5400,N,00357.4153,E,0.00,342.13,210226,,,A*7F
$GNGGA,074648.500,4334.5400,N,00357.4153,E,1,18,0.75,1.3,M,49.7,M,,*7E
$GNRMC,074648.500,A,4334.5400,N,00357.4153,E,0.00,342.13,210226,,,A*7D
$GNGGA,074648.750,4334.5400,N,00357.4153,E,1,18,0.75,1.3,M,49.7,M,,*79
$GNRMC,074648.750,A,4334.5400,N,00357.4153,E,0.00,342.13,210226,,,A*7A
$GNGGA,074649.000,4334.5400,N,00357.4153,E,1,18,0.75,1.3,M,49.7,M,,*7A
$GNRMC,074649.000,A,4334.5400,N,00357.4153,E,0.00,342.13,210226,,,A*79
$GNGGA,074649.250,4334.5400,N,00357.4153,E,1,18,0.75,1.3,M,49.7,M,,*7D
$GNRMC,074649.250,A,4334.5400,N,00357.4153,E,0.00,342.13,210226,,,A*7E
$GNGGA,074649.500,4334.5400,N,00357.4153,E,1,18,0.75,1.3,M,49.7,M,,*7F
$GNRMC,074649.500,A,4334.5400,N,00357.4153,E,0.00,342.13,210226,,,A*7C
$GNGGA,074649.750,4334.5400,N,00357.4153,E,1,18,0.75,1.3,M,49.7,M,,*78
$GNRMC,074649.750,A,4334.5400,N,00357.4153,E,0.00,342.13,210226,,,A*7B
$GNGGA,074650.000,4334.5400,N,00357.4153,E,1,18,0.75,1.3,M,49.7,M,,*72
$GNRMC,074650.000,A,4334.5400,N,00357.4153,E,0.00,342.13,210226,,,A*71
$GNGGA,074650.250,4334.5400,N,00357.4153,E,1,18,0.75,1.3,M,49.7,M,,*75
$GNRMC,074650.250,A,4334.5400,N,00357.4153,E,0.00,342.13,210226,,,A*76
$GNGGA,074650.500,4334.5400,N,00357.4153,E,1,18,0.75,1.3,M,49.7,M,,*77
$GNRMC,074650.500,A,4334.5400,N,00357.4153,E,0.00,342.13,210226,,,A*74
$GNGGA,074650.750,4334.5400,N,00357.4153,E,1,18,0.75,1.3,M,49.7,M,,*70
$GNRMC,074650.750,A,4334.5400,N,00357.4153,E,0.00,342.13,210226,,,A*73
$GNGGA,074651.000,4334.5400,N,00357.4153,E,1,18,0.75,1.3,M,49.7,M,,*73
$GNRMC,074651.000,A,4334.5400,N,00357.4153,E,0.00,342.13,210226,,,A*70
$GNGGA,074651.250,4334.5400,N,00357.4153,E,1,18,0.75,1.3,M,49.7,M,,*74
$GNRMC,074651.250,A,4334.5400,N,00357.4153,E,0.00,342.13,210226,,,A*77
$GNGGA,074651.500,4334.5400,N,00357.4153,E,1,18,0.75,1.3,M,49.7,M,,*76
$GNRMC,074651.500,A,4334.5400,N,00357.4153,E,0.00,342.13,210226,,,A*75
$GNGGA,074651.750,4334.5400,N,00357.4153,E,1,18,0.75,1.3,M,49.7,M,,*71
$GNRMC,074651.750,A,4334.5400,N,00357.4153,E,0.00,342.13,210226,,,A*72
$GNGGA,074652.000,4334.5400,N,00357.4153,E,1,18,0.75,1.3,M,49.7,M,,*70
$GNRMC,074652.000,A,4334.5400,N,00357.4153,E,0.00,342.13,210226,,,A*73
$GNGGA,074652.250,4334.5400,N,00357.4153,E,1,18,0.75,1.3,M,49.7,M,,*77
$GNRMC,074652.250,A,4334.5400,N,00357.4153,E,0.00,342.13,210226,,,A*74
$GNGGA,074652.500,4334.5400,N,00357.4153,E,1,18,0.75,1.3,M,49.7,M,,*75
$GNRMC,074652.500,A,4334.5400,N,00357.4153,E,0.00,342.13,210226,,,A*76
$GNGGA,074652.750,4334.5400,N,00357.4153,E,1,18,0.75,1.3,M,49.7,M,,*72
$GNRMC,074652.750,A,4334.5400,N,00357.4153,E,0.00,342.13,210226,,,A*71
$GNGGA,074653.000,4334.5400,N,00357.4153,E,1,18,0.74,1.3,M,49.7,M,,*70
$GNRMC,074653.000,A,4334.5400,N,00357.4153,E,0.00,342.13,210226,,,A*72
$GNGGA,074653.250,4334.5400,N,00357.4153,E,1,18,0.75,1.3,M,49.7,M,,*76
$GNRMC,074653.250,A,4334.5400,N,00357.4153,E,0.00,342.13,210226,,,A*75
$GNGGA,074653.500,4334.5400,N,00357.4153,E,1,18,0.75,1.3,M,49.7,M,,*74
$GNRMC,074653.500,A,4334.5400,N,00357.4153,E,0.00,342.13,210226,,,A*77
$GNGGA,074653.750,4334.5400,N,00357.4153,E,1,18,0.75,1.3,M,49.7,M,,*73
$GNRMC,074653.750,A,4334.5400,N,00357.4153,E,0.00,342.13,210226,,,A*70
$GNGGA,074654.000,4334.5400,N,00357.4153,E,1,18,0.75,1.3,M,49.7,M,,*76
$GNRMC,074654.000,A,4334.5400,N,00357.4153,E,0.00,342.13,210226,,,A*75
$GNGGA,074654.250,4334.5400,N,00357.4153,E,1,20,0.68,1.3,M,49.7,M,,*76
$GNRMC,074654.250,A,4334.5400,N,00357.4153,E,0.00,342.13,210226,,,A*72
$GNGGA,074654.500,4334.5400,N,00357.4153,E,1,20,0.68,1.3,M,49.7,M,,*74
$GNRMC,074654.500,A,4334.5400,N,00357.4153,E,0.00,342.13,210226,,,A*70
$GNGGA,074654.750,4334.5400,N,00357.4153,E,1,20,0.67,1.3,M,49.7,M,,*7C
$GNRMC,074654.750,A,4334.5400,N,00357.4153,E,0.00,342.13,210226,,,A*77
$GNGGA,074655.000,4334.5400,N,00357.4153,E,1,20,0.68,1.3,M,49.7,M,,*70
$GNRMC,074655.000,A,4334.5400,N,00357.4153,E,0.00,342.13,210226,,,A*74
$GNGGA,074655.250,4334.5400,N,00357.4153,E,1,20,0.68,1.3,M,49.7,M,,*77
$GNRMC,074655.250,A,4334.5400,N,00357.4153,E,0.00,342.13,210226,,,A*73
$GNGGA,074655.500,4334.5400,N,00357.4153,E,1,20,0.67,1.3,M,49.7,M,,*7A
$GNRMC,074655.500,A,4334.5400,N,00357.4153,E,0.00,342.13,210226,,,A*71
$GNGGA,074655.750,4334.5400,N,00357.4153,E,1,20,0.68,1.3,M,49.7,M,,*72
$GNRMC,074655.750,A,4334.5400,N,00357.4153,E,0.00,342.13,210226,,,A*76
$GNGGA,074656.000,4334.5400,N,00357.4153,E,1,20,0.68,1.3,M,49.7,M,,*73
$GNRMC,074656.000,A,4334.5400,N,00357.4153,E,0.00,342.13,210226,,,A*77
$GNGGA,074656.250,4334.5400,N,00357.4153,E,1,20,0.68,1.3,M,49.7,M,,*74
$GNRMC,074656.250,A,4334.5400,N,00357.4153,E,0.00,342.13,210226,,,A*70
$GNGGA,074656.500,4334.5400,N,00357.4153,E,1,20,0.68,1.3,M,49.7,M,,*76
$GNRMC,074656.500,A,4334.5400,N,00357.4153,E,0.00,342.13,210226,,,A*72
$GNGGA,074656.750,4334.5400,N,00357.4153,E,1,20,0.68,1.3,M,49.7,M,,*71
$GNRMC,074656.750,A,4334.5400,N,00357.4153,E,0.00,342.13,210226,,,A*75
$GNGGA,074657.000,4334.5400,N,00357.4153,E,1,20,0.68,1.3,M,49.7,M,,*72
$GNRMC,074657.000,A,4334.5400,N,00357.4153,E,0.00,342.13,210226,,,A*76
$GNGGA,074657.250,4334.5400,N,00357.4153,E,1,20,0.68,1.3,M,49.7,M,,*75
$GNRMC,074657.250,A,4334.5400,N,00357.4153,E,0.00,342.13,210226,,,A*71
$GNGGA,074657.500,4334.5400,N,00357.4153,E,1,20,0.68,1.3,M,49.7,M,,*77
$GNRMC,074657.500,A,4334.5400,N,00357.4153,E,0.00,342.13,210226,,,A*73
$GNGGA,074657.750,4334.5400,N,00357.4153,E,1,19,0.71,1.3,M,49.7,M,,*72
$GNRMC,074657.750,A,4334.5400,N,00357.4153,E,0.00,342.13,210226,,,A*74
$GNGGA,074658.000,4334.5400,N,00357.4153,E,1,20,0.68,1.3,M,49.7,M,,*7D
$GNRMC,074658.000,A,4334.5400,N,00357.4153,E,0.00,342.13,210226,,,A*79
$GNGGA,074658.250,4334.5400,N,00357.4153,E,1,20,0.68,1.3,M,49.7,M,,*7A
$GNRMC,074658.250,A,4334.5400,N,00357.4153,E,0.00,342.13,210226,,,A*7E
$GNGGA,074658.500,4334.5400,N,00357.4153,E,1,20,0.68,1.3,M,49.7,M,,*78
$GNRMC,074658.500,A,4334.5400,N,00357.4153,E,0.00,342.13,210226,,,A*7C
$GNGGA,074658.750,4334.5400,N,00357.4153,E,1,20,0.68,1.3,M,49.7,M,,*7F
$GNRMC,074658.750,A,4334.5400,N,00357.4153,E,0.00,342.13,210226,,,A*7B
$GNGGA,074659.000,4334.5400,N,00357.4153,E,1,20,0.68,1.3,M,49.7,M,,*7C
$GNRMC,074659.000,A,4334.5400,N,00357.4153,E,0.00,342.13,210226,,,A*78
$GNGGA,074659.250,4334.5400,N,00357.4153,E,1,20,0.68,1.3,M,49.7,M,,*7B
$GNRMC,074659.250,A,4334.5400,N,00357.4153,E,0.00,342.13,210226,,,A*7F
$GNGGA,074659.500,4334.5400,N,00357.4153,E,1,20,0.68,1.3,M,49.7,M,,*79
$GNRMC,074659.500,A,4334.5400,N,00357.4153,E,0.00,342.13,210226,,,A*7D
$GNGGA,074659.750,4334.5400,N,00357.4153,E,1,20,0.68,1.3,M,49.7,M,,*7E
$GNRMC,074659.750,A,4334.5400,N,00357.4153,E,0.00,342.13,210226,,,A*7A
$GNGGA,074700.000,4334.5400,N,00357.4153,E,1,20,0.68,1.3,M,49.7,M,,*71
$GNRMC,074700.000,A,4334.5400,N,00357.4153,E,0.00,342.13,210226,,,A*75
$GNGGA,074700.250,4334.5400,N,00357.4153,E,1,20,0.68,1.3,M,49.7,M,,*76
$GNRMC,074700.250,A,4334.5400,N,00357.4153,E,0.00,342.13,210226,,,A*72
$GNGGA,074700.500,4334.5400,N,00357.4153,E,1,20,0.68,1.3,M,49.7,M,,*74
$GNRMC,074700.500,A,4334.5400,N,00357.4153,E,0.00,342.13,210226,,,A*70
$GNGGA,074700.750,4334.5400,N,00357.4153,E,1,20,0.68,1.3,M,49.7,M,,*73
$GNRMC,074700.750,A,4334.5400,N,00357.4153,E,0.00,342.13,210226,,,A*77
$GNGGA,074701.000,4334.5400,N,00357.4153,E,1,20,0.68,1.3,M,49.7,M,,*70
$GNRMC,074701.000,A,4334.5400,N,00357.4153,E,0.00,342.13,210226,,,A*74
$GNGGA,074701.250,4334.5400,N,00357.4153,E,1,20,0.68,1.3,M,49.7,M,,*77
$GNRMC,074701.250,A,4334.5400,N,00357.4153,E,0.00,342.13,210226,,,A*73
$GNGGA,074701.500,4334.5400,N,00357.4153,E,1,20,0.68,1.3,M,49.7,M,,*75
$GNRMC,074701.500,A,4334.5400,N,00357.4153,E,0.00,342.13,210226,,,A*71
$GNGGA,074701.750,4334.5400,N,00357.4153,E,1,20,0.68,1.3,M,49.7,M,,*72
$GNRMC,074701.750,A,4334.5400,N,00357.4153,E,0.00,342.13,210226,,,A*76
$GNGGA,074702.000,4334.5400,N,00357.4153,E,1,20,0.68,1.3,M,49.7,M,,*73
$GNRMC,074702.000,A,4334.5400,N,00357.4153,E,0.00,342.13,210226,,,A*77
$GNGGA,074702.250,4334.5400,N,00357.4153,E,1,20,0.68,1.3,M,49.7,M,,*74
$GNRMC,074702.250,A,4334.5400,N,00357.4153,E,0.00,342.13,210226,,,A*70
$GNGGA,074702.500,4334.5400,N,00357.4153,E,1,20,0.68,1.3,M,49.7,M,,*76
$GNRMC,074702.500,A,4334.5400,N,00357.4153,E,0.00,342.13,210226,,,A*72
$GNGGA,074702.750,4334.5400,N,00357.4153,E,1,20,0.68,1.3,M,49.7,M,,*71
$GNRMC,074702.750,A,4334.5400,N,00357.4153,E,0.00,342.13,210226,,,A*75
$GNGGA,074703.000,4334.5400,N,00357.4153,E,1,20,0.68,1.3,M,49.7,M,,*72
$GNRMC,074703.000,A,4334.5400,N,00357.4153,E,0.00,342.13,210226,,,A*76
$GNGGA,074703.250,4334.5400,N,00357.4153,E,1,20,0.68,1.3,M,49.7,M,,*75
$GNRMC,074703.250,A,4334.5400,N,00357.4153,E,0.00,342.13,210226,,,A*71
$GNGGA,074703.500,4334.5400,N,00357.4153,E,1,20,0.68,1.3,M,49.7,M,,*77
$GNRMC,074703.500,A,4334.5400,N,00357.4153,E,0.00,342.13,210226,,,A*73
$GNGGA,074703.750,4334.5400,N,00357.4153,E,1,20,0.68,1.3,M,49.7,M,,*70
$GNRMC,074703.750,A,4334.5400,N,00357.4153,E,0.00,342.13,210226,,,A*74
$GNGGA,074704.000,4334.5400,N,00357.4153,E,1,20,0.68,1.3,M,49.7,M,,*75
$GNRMC,074704.000,A,4334.5400,N,00357.4153,E,0.00,342.13,210226,,,A*71
$GNGGA,074704.250,4334.5400,N,00357.4153,E,1,20,0.68,1.3,M,49.7,M,,*72
$GNRMC,074704.250,A,4334.5400,N,00357.4153,E,0.00,342.13,210226,,,A*76
$GNGGA,074704.500,4334.5400,N,00357.4153,E,1,20,0.68,1.3,M,49.7,M,,*70
$GNRMC,074704.500,A,4334.5400,N,00357.4153,E,0.00,342.13,210226,,,A*74
$GNGGA,074704.750,4334.5400,N,00357.4153,E,1,20,0.68,1.3,M,49.7,M,,*77
$GNRMC,074704.750,A,4334.5400,N,00357.4153,E,0.00,342.13,210226,,,A*73
$GNGGA,074705.000,4334.5400,N,00357.4153,E,1,20,0.68,1.3,M,49.7,M,,*74
$GNRMC,074705.000,A,4334.5400,N,00357.4153,E,0.00,342.13,210226,,,A*70
$GNGGA,074705.250,4334.5400,N,00357.4153,E,1,20,0.68,1.3,M,49.7,M,,*73
$GNRMC,074705.250,A,4334.5400,N,00357.4153,E,0.00,342.13,210226,,,A*77
$GNGGA,074705.500,4334.5400,N,00357.4153,E,1,20,0.68,1.3,M,49.7,M,,*71
$GNRMC,074705.500,A,4334.5400,N,00357.4153,E,0.00,342.13,210226,,,A*75
$GNGGA,074705.750,4334.5400,N,00357.4153,E,1,20,0.68,1.3,M,49.7,M,,*76
$GNRMC,074705.750,A,4334.5400,N,00357.4153,E,0.00,342.13,210226,,,A*72
$GNGGA,074706.000,4334.5400,N,00357.4153,E,1,20,0.68,1.3,M,49.7,M,,*77
$GNRMC,074706.000,A,4334.5400,N,00357.4153,E,0.00,342.13,210226,,,A*73
$GNGGA,074706.250,4334.5400,N,00357.4153,E,1,20,0.68,1.3,M,49.7,M,,*70
$GNRMC,074706.250,A,4334.5400,N,00357.4153,E,0.00,342.13,210226,,,A*74
$GNGGA,074706.500,4334.5400,N,00357.4153,E,1,20,0.68,1.3,M,49.7,M,,*72
$GNRMC,074706.500,A,4334.5400,N,00357.4153,E,0.00,342.13,210226,,,A*76
$GNGGA,074706.750,4334.5400,N,00357.4153,E,1,20,0.68,1.3,M,49.7,M,,*75
$GNRMC,074706.750,A,4334.5400,N,00357.4153,E,0.00,342.13,210226,,,A*71
$GNGGA,074707.000,4334.5400,N,00357.4153,E,1,20,0.68,1.3,M,49.7,M,,*76
$GNRMC,074707.000,A,4334.5400,N,00357.4153,E,0.00,342.13,210226,,,A*72
$GNGGA,074707.250,4334.5400,N,00357.4153,E,1,20,0.68,1.3,M,49.7,M,,*71
$GNRMC,074707.250,A,4334.5400,N,00357.4153,E,0.00,342.13,210226,,,A*75
$GNGGA,074707.500,4334.5400,N,00357.4153,E,1,20,0.68,1.3,M,49.7,M,,*73
$GNRMC,074707.500,A,4334.5400,N,00357.4153,E,0.00,342.13,210226,,,A*77
$GNGGA,074707.750,4334.5400,N,00357.4153,E,1,20,0.67,1.3,M,49.7,M,,*7B
$GNRMC,074707.750,A,4334.5400,N,00357.4153,E,0.00,342.13,210226,,,A*70
$GNGGA,074708.000,4334.5400,N,00357.4153,E,1,20,0.68,1.3,M,49.7,M,,*79
$GNRMC,074708.000,A,4334.5400,N,00357.4153,E,0.00,342.13,210226,,,A*7D
$GNGGA,074708.250,4334.5400,N,00357.4153,E,1,20,0.68,1.3,M,49.7,M,,*7E
$GNRMC,074708.250,A,4334.5400,N,00357.4153,E,0.00,342.13,210226,,,A*7A
$GNGGA,074708.500,4334.5400,N,00357.4153,E,1,20,0.68,1.3,M,49.7,M,,*7C
$GNRMC,074708.500,A,4334.5400,N,00357.4153,E,0.00,342.13,210226,,,A*78
$GNGGA,074708.750,4334.5400,N,00357.4153,E,1,20,0.68,1.3,M,49.7,M,,*7B
$GNRMC,074708.750,A,4334.5400,N,00357.4153,E,0.00,342.13,210226,,,A*7F
$GNGGA,074709.000,4334.5400,N,00357.4153,E,1,20,0.68,1.3,M,49.7,M,,*78
$GNRMC,074709.000,A,4334.5400,N,00357.4153,E,0.00,342.13,210226,,,A*7C
$GNGGA,074709.250,4334.5400,N,00357.4153,E,1,20,0.68,1.3,M,49.7,M,,*7F
$GNRMC,074709.250,A,4334.5400,N,00357.4153,E,0.00,342.13,210226,,,A*7B
$GNGGA,074709.500,4334.5400,N,00357.4153,E,1,20,0.68,1.3,M,49.7,M,,*7D
$GNRMC,074709.500,A,4334.5400,N,00357.4153,E,0.00,342.13,210226,,,A*79
$GNGGA,074709.750,4334.5400,N,00357.4153,E,1,20,0.68,1.3,M,49.7,M,,*7A
$GNRMC,074709.750,A,4334.5400,N,00357.4153,E,0.00,342.13,210226,,,A*7E
$GNGGA,074710.000,4334.5400,N,00357.4153,E,1,20,0.68,1.3,M,49.7,M,,*70
$GNRMC,074710.000,A,4334.5400,N,00357.4153,E,0.00,342.13,210226,,,A*74
$GNGGA,074710.250,4334.5400,N,00357.4153,E,1,20,0.68,1.3,M,49.7,M,,*77
$GNRMC,074710.250,A,4334.5400,N,00357.4153,E,0.00,342.13,210226,,,A*73
$GNGGA,074710.500,4334.5400,N,00357.4153,E,1,20,0.68,1.3,M,49.7,M,,*75
$GNRMC,074710.500,A,4334.5400,N,00357.4153,E,0.00,342.13,210226,,,A*71
$GNGGA,074710.750,4334.5400,N,00357.4153,E,1,20,0.68,1.3,M,49.7,M,,*72
$GNRMC,074710.750,A,4334.5400,N,00357.4153,E,0.00,342.13,210226,,,A*76
$GNGGA,074711.000,4334.5400,N,00357.4153,E,1,20,0.68,1.3,M,49.7,M,,*71
$GNRMC,074711.000,A,4334.5400,N,00357.4153,E,0.00,342.13,210226,,,A*75
$GNGGA,074711.250,4334.5400,N,00357.4153,E,1,20,0.68,1.3,M,49.7,M,,*76
$GNRMC,074711.250,A,4334.5400,N,00357.4153,E,0.00,342.13,210226,,,A*72
$GNGGA,074711.500,4334.5400,N,00357.4153,E,1,20,0.68,1.3,M,49.7,M,,*74
$GNRMC,074711.500,A,4334.5400,N,00357.4153,E,0.00,342.13,210226,,,A*70
$GNGGA,074711.750,4334.5400,N,00357.4153,E,1,20,0.68,1.3,M,49.7,M,,*73
$GNRMC,074711.750,A,4334.5400,N,00357.4153,E,0.00,342.13,210226,,,A*77
$GNGGA,074712.000,4334.5400,N,00357.4153,E,1,20,0.68,1.3,M,49.7,M,,*72
$GNRMC,074712.000,A,4334.5400,N,00357.4153,E,0.00,342.13,210226,,,A*76
$GNGGA,074712.250,4334.5400,N,00357.4153,E,1,20,0.68,1.3,M,49.7,M,,*75
$GNRMC,074712.250,A,4334.5400,N,00357.4153,E,0.00,342.13,210226,,,A*71
$GNGGA,074712.500,4334.5400,N,00357.4153,E,1,20,0.68,1.3,M,49.7,M,,*77
$GNRMC,074712.500,A,4334.5400,N,00357.4153,E,0.00,342.13,210226,,,A*73
$GNGGA,074712.750,4334.5400,N,00357.4153,E,1,20,0.68,1.3,M,49.7,M,,*70
$GNRMC,074712.750,A,4334.5400,N,00357.4153,E,0.00,342.13,210226,,,A*74
$GNGGA,074713.000,4334.5400,N,00357.4153,E,1,20,0.68,1.3,M,49.7,M,,*73
$GNRMC,074713.000,A,4334.5400,N,00357.4153,E,0.00,342.13,210226,,,A*77
$GNGGA,074713.250,4334.5400,N,00357.4153,E,1,20,0.68,1.3,M,49.7,M,,*74
$GNRMC,074713.250,A,4334.5400,N,00357.4153,E,0.00,342.13,210226,,,A*70
$GNGGA,074713.500,4334.5400,N,00357.4153,E,1,20,0.68,1.3,M,49.7,M,,*76
$GNRMC,074713.500,A,4334.5400,N,00357.4153,E,0.00,342.13,210226,,,A*72
$GNGGA,074713.750,4334.5400,N,00357.4153,E,1,20,0.68,1.3,M,49.7,M,,*71
$GNRMC,074713.750,A,4334.5400,N,00357.4153,E,0.00,342.13,210226,,,A*75
$GNGGA,074714.000,4334.5400,N,00357.4153,E,1,20,0.68,1.3,M,49.7,M,,*74
$GNRMC,074714.000,A,4334.5400,N,00357.4153,E,0.00,342.13,210226,,,A*70
$GNGGA,074714.250,4334.5400,N,00357.4153,E,1,20,0.68,1.3,M,49.7,M,,*73
$GNRMC,074714.250,A,4334.5400,N,00357.4153,E,0.00,342.13,210226,,,A*77
$GNGGA,074714.500,4334.5400,N,00357.4153,E,1,20,0.68,1.3,M,49.7,M,,*71
$GNRMC,074714.500,A,4334.5400,N,00357.4153,E,0.00,342.13,210226,,,A*75
$GNGGA,074714.750,4334.5400,N,00357.4153,E,1,20,0.68,1.3,M,49.7,M,,*76
$GNRMC,074714.750,A,4334.5400,N,00357.4153,E,0.00,342.13,210226,,,A*72
$GNGGA,074715.000,4334.5400,N,00357.4153,E,1,20,0.68,1.3,M,49.7,M,,*75
$GNRMC,074715.000,A,4334.5400,N,00357.4153,E,0.00,342.13,210226,,,A*71
$GNGGA,074715.250,4334.5400,N,00357.4153,E,1,20,0.68,1.3,M,49.7,M,,*72
$GNRMC,074715.250,A,4334.5400,N,00357.4153,E,0.00,342.13,210226,,,A*76
$GNGGA,074715.500,4334.5400,N,00357.4153,E,1,20,0.68,1.3,M,49.7,M,,*70
$GNRMC,074715.500,A,4334.5400,N,00357.4153,E,0.00,342.13,210226,,,A*74
$GNGGA,074715.750,4334.5400,N,00357.4153,E,1,20,0.68,1.3,M,49.7,M,,*77
$GNRMC,074715.750,A,4334.5400,N,00357.4153,E,0.00,342.13,210226,,,A*73
$GNGGA,074716.000,4334.5400,N,00357.4153,E,1,20,0.68,1.3,M,49.7,M,,*76
$GNRMC,074716.000,A,4334.5400,N,00357.4153,E,0.00,342.13,210226,,,A*72
$GNGGA,074716.250,4334.5400,N,00357.4153,E,1,20,0.68,1.3,M,49.7,M,,*71
$GNRMC,074716.250,A,4334.5400,N,00357.4153,E,0.00,342.13,210226,,,A*75
$GNGGA,074716.500,4334.5400,N,00357.4153,E,1,20,0.68,1.3,M,49.7,M,,*73
$GNRMC,074716.500,A,4334.5400,N,00357.4153,E,0.00,342.13,210226,,,A*77
$GNGGA,074716.750,4334.5400,N,00357.4153,E,1,20,0.68,1.3,M,49.7,M,,*74
$GNRMC,074716.750,A,4334.5400,N,00357.4153,E,0.00,342.13,210226,,,A*70
$GNGGA,074717.000,4334.5400,N,00357.4153,E,1,20,0.68,1.3,M,49.7,M,,*77
$GNRMC,074717.000,A,4334.5400,N,00357.4153,E,0.00,342.13,210226,,,A*73
$GNGGA,074717.250,4334.5400,N,00357.4153,E,1,20,0.68,1.3,M,49.7,M,,*70
$GNRMC,074717.250,A,4334.5400,N,00357.4153,E,0.00,342.13,210226,,,A*74
$GNGGA,074717.500,4334.5400,N,00357.4153,E,1,20,0.68,1.3,M,49.7,M,,*72
$GNRMC,074717.500,A,4334.5400,N,00357.4153,E,0.00,342.13,210226,,,A*76
$GNGGA,074717.750,4334.5400,N,00357.4153,E,1,20,0.68,1.3,M,49.7,M,,*75
$GNRMC,074717.750,A,4334.5400,N,00357.4153,E,0.00,342.13,210226,,,A*71
$GNGGA,074718.000,4334.5400,N,00357.4153,E,1,20,0.68,1.3,M,49.7,M,,*78
$GNRMC,074718.000,A,4334.5400,N,00357.4153,E,0.00,342.13,210226,,,A*7C
$GNGGA,074718.250,4334.5400,N,00357.4153,E,1,20,0.68,1.3,M,49.7,M,,*7F
$GNRMC,074718.250,A,4334.5400,N,00357.4153,E,0.00,342.13,210226,,,A*7B
$GNGGA,074718.500,4334.5400,N,00357.4153,E,1,20,0.68,1.3,M,49.7,M,,*7D
$GNRMC,074718.500,A,4334.5400,N,00357.4153,E,0.00,342.13,210226,,,A*79
$GNGGA,074718.750,4334.5400,N,00357.4153,E,1,20,0.68,1.3,M,49.7,M,,*7A
$GNRMC,074718.750,A,4334.5400,N,00357.4153,E,0.00,342.13,210226,,,A*7E
$GNGGA,074719.000,4334.5400,N,00357.4153,E,1,20,0.68,1.3,M,49.7,M,,*79
$GNRMC,074719.000,A,4334.5400,N,00357.4153,E,0.00,342.13,210226,,,A*7D
$GNGGA,074719.250,4334.5400,N,00357.4153,E,1,20,0.68,1.3,M,49.7,M,,*7E
$GNRMC,074719.250,A,4334.5400,N,00357.4153,E,0.00,342.13,210226,,,A*7A
$GNGGA,074719.500,4334.5400,N,00357.4153,E,1,20,0.68,1.3,M,49.7,M,,*7C
$GNRMC,074719.500,A,4334.5400,N,00357.4153,E,0.00,342.13,210226,,,A*78
$GNGGA,074719.750,4334.5400,N,00357.4153,E,1,20,0.68,1.3,M,49.7,M,,*7B
$GNRMC,074719.750,A,4334.5400,N,00357.4153,E,0.00,342.13,210226,,,A*7F
$GNGGA,074720.000,4334.5400,N,00357.4153,E,1,20,0.68,1.3,M,49.7,M,,*73
$GNRMC,074720.000,A,4334.5400,N,00357.4153,E,0.00,342.13,210226,,,A*77
$GNGGA,074720.250,4334.5400,N,00357.4153,E,1,20,0.68,1.3,M,49.7,M,,*74
$GNRMC,074720.250,A,4334.5400,N,00357.4153,E,0.00,342.13,210226,,,A*70
$GNGGA,074720.500,4334.5400,N,00357.4153,E,1,20,0.68,1.3,M,49.7,M,,*76
$GNRMC,074720.500,A,4334.5400,N,00357.4153,E,0.00,342.13,210226,,,A*72
$GNGGA,074720.750,4334.5400,N,00357.4153,E,1,20,0.68,1.3,M,49.7,M,,*71
$GNRMC,074720.750,A,4334.5400,N,00357.4153,E,0.00,342.13,210226,,,A*75
$GNGGA,074721.000,4334.5400,N,00357.4153,E,1,20,0.68,1.3,M,49.7,M,,*72
$GNRMC,074721.000,A,4334.5400,N,00357.4153,E,0.00,342.13,210226,,,A*76
$GNGGA,074721.250,4334.5400,N,00357.4153,E,1,20,0.68,1.3,M,49.7,M,,*75
$GNRMC,074721.250,A,4334.5400,N,00357.4153,E,0.00,342.13,210226,,,A*71
$GNGGA,074721.500,4334.5400,N,00357.4153,E,1,20,0.68,1.3,M,49.7,M,,*77
$GNRMC,074721.500,A,4334.5400,N,00357.4153,E,0.00,342.13,210226,,,A*73
$GNGGA,074721.750,4334.5400,N,00357.4153,E,1,20,0.68,1.3,M,49.7,M,,*70
$GNRMC,074721.750,A,4334.5400,N,00357.4153,E,0.00,342.13,210226,,,A*74
$GNGGA,074722.000,4334.5400,N,00357.4153,E,1,20,0.68,1.3,M,49.7,M,,*71
$GNRMC,074722.000,A,4334.5400,N,00357.4153,E,0.00,342.13,210226,,,A*75
$GNGGA,074722.250,4334.5400,N,00357.4153,E,1,20,0.68,1.3,M,49.7,M,,*76
$GNRMC,074722.250,A,4334.5400,N,00357.4153,E,0.00,342.13,210226,,,A*72
$GNGGA,074722.500,4334.5400,N,00357.4153,E,1,20,0.68,1.3,M,49.7,M,,*74
$GNRMC,074722.500,A,4334.5400,N,00357.4153,E,0.00,342.13,210226,,,A*70
$GNGGA,074722.750,4334.5400,N,00357.4153,E,1,20,0.68,1.3,M,49.7,M,,*73
$GNRMC,074722.750,A,4334.5400,N,00357.4153,E,0.00,342.13,210226,,,A*77
$GNGGA,074723.000,4334.5400,N,00357.4153,E,1,20,0.68,1.3,M,49.7,M,,*70
$GNRMC,074723.000,A,4334.5400,N,00357.4153,E,0.00,342.13,210226,,,A*74
$GNGGA,074723.250,4334.5400,N,00357.4153,E,1,20,0.68,1.3,M,49.7,M,,*77
$GNRMC,074723.250,A,4334.5400,N,00357.4153,E,0.00,342.13,210226,,,A*73
$GNGGA,074723.500,4334.5400,N,00357.4153,E,1,20,0.68,1.3,M,49.7,M,,*75
$GNRMC,074723.500,A,4334.5400,N,00357.4153,E,0.00,342.13,210226,,,A*71
$GNGGA,074723.750,4334.5400,N,00357.4153,E,1,20,0.68,1.3,M,49.7,M,,*72
$GNRMC,074723.750,A,4334.5400,N,00357.4153,E,0.00,342.13,210226,,,A*76
$GNGGA,074724.000,4334.5400,N,00357.4153,E,1,20,0.68,1.3,M,49.7,M,,*77
$GNRMC,074724.000,A,4334.5400,N,00357.4153,E,0.00,342.13,210226,,,A*73
$GNGGA,074724.250,4334.5400,N,00357.4153,E,1,20,0.68,1.3,M,49.7,M,,*70
$GNRMC,074724.250,A,4334.5400,N,00357.4153,E,0.00,342.13,210226,,,A*74
$GNGGA,074724.500,4334.5400,N,00357.4153,E,1,20,0.68,1.3,M,49.7,M,,*72
$GNRMC,074724.500,A,4334.5400,N,00357.4153,E,0.00,342.13,210226,,,A*76
$GNGGA,074724.750,4334.5400,N,00357.4153,E,1,20,0.68,1.3,M,49.7,M,,*75
$GNRMC,074724.750,A,4334.5400,N,00357.4153,E,0.00,342.13,210226,,,A*71
$GNGGA,074725.000,4334.5400,N,00357.4153,E,1,20,0.68,1.3,M,49.7,M,,*76
$GNRMC,074725.000,A,4334.5400,N,00357.4153,E,0.00,342.13,210226,,,A*72
$GNGGA,074725.250,4334.5400,N,00357.4153,E,1,20,0.68,1.3,M,49.7,M,,*71
$GNRMC,074725.250,A,4334.5400,N,00357.4153,E,0.00,342.13,210226,,,A*75
$GNGGA,074725.500,4334.5400,N,00357.4153,E,1,20,0.68,1.3,M,49.7,M,,*73
$GNRMC,074725.500,A,4334.5400,N,00357.4153,E,0.00,342.13,210226,,,A*77
$GNGGA,074725.750,4334.5400,N,00357.4153,E,1,20,0.68,1.3,M,49.7,M,,*74
$GNRMC,074725.750,A,4334.5400,N,00357.4153,E,0.00,342.13,210226,,,A*70
$GNGGA,074726.000,4334.5400,N,00357.4153,E,1,20,0.68,1.3,M,49.7,M,,*75
$GNRMC,074726.000,A,4334.5400,N,00357.4153,E,0.00,342.13,210226,,,A*71
